City_ID,City,Lat,Lng,Max Temp,Humidity,Cloudiness,Wind Speed,Country,Date
0,blackmans bay,-43.0167,147.3167,283.56,96,100,7.42,AU,1687481846
1,yellowknife,62.456,-114.3525,294.44,32,20,5.66,CA,1687481786
2,puerto ayora,-0.7393,-90.3518,297.9,91,96,3.13,EC,1687481847
3,papatowai,-46.5619,169.4708,284.23,84,100,2.63,NZ,1687481847
4,guymon,36.6828,-101.4816,296.15,73,0,5.14,US,1687481847
5,margaret river,-33.95,115.0667,285.01,63,95,9.63,AU,1687481848
6,stanley,54.868,-1.6985,286.35,89,75,0.0,GB,1687481848
7,keflavik,64.0049,-22.5624,285.39,94,100,11.83,IS,1687481849
8,port elizabeth,-33.918,25.5701,287.31,82,0,7.72,ZA,1687481849
9,longyearbyen,78.2186,15.6401,280.06,87,75,1.54,SJ,1687481611
10,mahina,-17.5065,-149.489,302.02,70,20,2.06,PF,1687481850
11,orapa,-21.2833,25.3667,286.02,66,0,5.04,BW,1687481851
12,thinadhoo,0.5333,72.9333,300.23,79,100,3.88,MV,1687481851
13,ushuaia,-54.8,-68.3,274.96,75,75,2.57,AR,1687481837
14,porbandar,21.6422,69.6093,301.71,77,100,4.46,IN,1687481852
15,uthal,25.8072,66.6219,302.08,73,72,3.25,PK,1687481852
16,nemuro,43.3236,145.575,286.37,86,100,3.47,JP,1687481853
17,rikaze,29.25,88.8833,289.1,20,5,1.13,CN,1687481853
18,ataq,14.5377,46.8319,297.78,59,0,4.51,YE,1687481854
19,tosontsengel,48.7567,98.2839,289.06,63,82,0.63,MN,1687481854
20,tura,25.5198,90.2201,298.03,92,65,1.86,IN,1687481855
21,avarua,-21.2078,-159.775,299.18,94,75,4.12,CK,1687481855
22,bayanaul,50.7889,75.6956,284.89,52,11,2.85,KZ,1687481856
23,st. john's,47.5649,-52.7093,287.81,91,100,2.06,CA,1687481723
24,cabo san lucas,22.8909,-109.9124,304.6,70,0,2.57,MX,1687481566
25,lata,40.1629,-8.3327,290.33,93,0,0.96,PT,1687481857
26,adamstown,-25.066,-130.1015,293.67,57,0,9.36,PN,1687481857
27,puerto natales,-51.7236,-72.4875,275.0,98,100,1.0,CL,1687481858
28,tiksi,71.6872,128.8694,289.38,38,46,7.18,RU,1687481858
29,somerset,40.5668,-74.5496,294.6,78,100,0.45,US,1687481778
30,mangrol,21.1167,70.1167,301.21,82,100,4.73,IN,1687481859
31,port-aux-francais,-49.35,70.2167,280.7,98,100,15.87,TF,1687481859
32,bel ombre,-4.6167,55.4167,299.06,73,20,3.6,SC,1687481860
33,feijo,-8.1642,-70.3536,296.71,88,46,0.73,BR,1687481860
34,west island,-12.1568,96.8225,300.14,83,75,5.66,CC,1687481861
35,hawaiian paradise park,19.5933,-154.9731,301.5,71,0,3.6,US,1687481861
36,fort st. john,56.2499,-120.8529,289.09,77,100,8.75,CA,1687481684
37,invercargill,-46.4,168.35,283.92,78,100,1.9,NZ,1687481697
38,arraial do cabo,-22.9661,-42.0278,293.13,77,0,4.63,BR,1687481863
39,okondja,-0.6549,13.6753,296.13,81,82,1.22,GA,1687481864
40,albany,42.6001,-73.9662,294.5,71,100,1.28,US,1687481864
41,bilibino,68.0546,166.4372,291.94,48,100,1.64,RU,1687481865
42,ca mau,9.1769,105.15,303.41,58,97,3.53,VN,1687481865
43,waitangi,-43.9535,-176.5597,286.38,72,6,4.02,NZ,1687481866
44,papao,-17.75,-149.55,301.97,83,94,10.72,PF,1687481866
45,enewetak,11.3474,162.3373,301.44,78,50,8.62,MH,1687481867
46,grytviken,-54.2811,-36.5092,273.83,86,100,4.47,GS,1687481867
47,fale old settlement,-9.3852,-171.2468,301.19,71,60,3.45,TK,1687481867
48,beloyarskiy,63.7119,66.6722,280.28,79,100,3.5,RU,1687481868
49,vadso,70.0744,29.7487,284.64,81,5,1.54,NO,1687481868
50,thompson,55.7435,-97.8558,290.24,59,75,4.12,CA,1687481869
51,whitehorse,60.7161,-135.0538,299.58,29,40,1.54,CA,1687481869
52,rong'an,26.1247,119.1214,297.4,95,100,1.14,CN,1687481870
53,edinburgh of the seven seas,-37.0676,-12.3116,284.71,62,100,7.76,SH,1687481870
54,puerto deseado,-47.7503,-65.8938,280.68,67,100,3.85,AR,1687481871
55,shimoda,34.6667,138.95,294.35,88,100,3.21,JP,1687481871
56,tezu,27.9167,96.1667,297.82,88,87,0.31,IN,1687481871
57,aasiaat,68.7098,-52.8699,274.45,87,100,2.94,GL,1687481872
58,toamasina,-18.1667,49.3833,291.15,94,20,1.03,MG,1687481873
59,georgetown,5.4112,100.3354,303.11,89,20,1.54,MY,1687481873
60,manaure,11.7751,-72.4445,302.53,69,14,7.94,CO,1687481874
61,bethel,41.3712,-73.414,294.2,76,100,2.06,US,1687481874
62,bayana,26.9,77.2833,304.23,56,93,5.01,IN,1687481875
63,ulety,51.3572,112.4849,292.44,67,100,1.78,RU,1687481875
64,ashdod,31.8167,34.65,296.05,79,0,0.84,IL,1687481876
65,greymouth,-42.4667,171.2,289.11,66,44,2.89,NZ,1687481876
66,susuman,62.7833,148.1667,295.85,42,100,2.15,RU,1687481877
67,ilulissat,69.2167,-51.1,272.91,93,100,1.9,GL,1687481877
68,hamilton,39.1834,-84.5333,294.3,76,100,4.12,US,1687481878
69,weno,7.4515,151.8468,300.12,94,100,2.57,FM,1687481879
70,isafjordur,66.0755,-23.124,283.11,82,100,2.94,IS,1687481879
71,udachny,66.4167,112.4,289.51,72,100,2.51,RU,1687481880
72,newman,37.3138,-121.0208,300.34,37,8,5.81,US,1687481880
73,merowe,18.4833,31.8167,301.59,18,0,4.26,SD,1687481881
74,iqaluit,63.7506,-68.5145,279.0,60,40,8.23,CA,1687481682
75,kodiak,57.79,-152.4072,283.88,87,100,2.06,US,1687481882
76,tinghir,31.5157,-5.5343,300.83,18,0,3.07,MA,1687481719
77,chok chai,14.7284,102.1652,304.42,98,11,3.62,TH,1687481883
78,itaituba,-4.2761,-55.9836,299.7,71,98,1.14,BR,1687481883
79,port alfred,-33.5906,26.891,286.03,84,3,1.34,ZA,1687481883
80,alice springs,-23.7,133.8833,286.9,53,10,25.48,AU,1687481652
81,princeville,45.7668,-61.2985,294.97,69,0,2.06,CA,1687481884
82,namsos,64.4662,11.4957,287.1,72,100,4.12,NO,1687481886
83,klyuchi,52.2667,79.1667,285.95,52,98,3.49,RU,1687481886
84,hermanus,-34.4187,19.2345,285.26,71,0,4.41,ZA,1687481887
85,howrah,22.5892,88.3103,301.15,89,75,2.57,IN,1687481887
86,arti,56.4234,58.5328,280.49,87,93,0.97,RU,1687481888
87,taoudenni,22.6783,-3.9836,309.9,10,5,6.92,ML,1687481888
88,loukhi,66.0764,33.0381,280.48,80,0,2.3,RU,1687481889
89,kimbe,-5.5502,150.1429,304.75,58,92,1.54,PG,1687481889
90,shingu,33.7333,135.9833,297.11,82,99,2.09,JP,1687481890
91,fort bragg,35.139,-79.006,297.47,92,100,2.06,US,1687481890
92,ghatanji,20.1333,78.3167,300.7,72,100,1.87,IN,1687481890
93,neiafu,-18.65,-173.9833,294.13,88,100,2.03,TO,1687481891
94,hithadhoo,-0.6,73.0833,300.21,76,100,3.69,MV,1687481891
95,kostopil',50.8784,26.4519,290.44,95,81,2.32,UA,1687481837
96,nar'yan-mar,67.6713,53.087,279.29,81,98,3.94,RU,1687481892
97,sydney,-33.8679,151.2073,290.01,61,20,6.69,AU,1687481608
98,pacific grove,36.6177,-121.9166,290.97,79,20,7.72,US,1687481893
99,punta arenas,-53.15,-70.9167,277.1,86,100,3.08,CL,1687481657
100,lamu,-2.2717,40.902,299.27,78,80,6.52,KE,1687481894
101,minot air force base,48.4209,-101.3391,296.25,59,20,2.57,US,1687481637
102,afaahiti,-17.75,-149.2833,301.08,83,99,10.03,PF,1687481895
103,manavalakurichi,8.1333,77.3,299.65,81,100,5.69,IN,1687481895
104,kone,-21.0595,164.8658,297.73,46,25,3.19,NC,1687481896
105,labytnangi,66.6572,66.4183,279.06,70,70,3.0,RU,1687481896
106,sisimiut,66.9395,-53.6735,275.26,81,86,4.95,GL,1687481897
107,petauke,-14.2426,31.3253,289.41,62,0,5.16,ZM,1687481897
108,ribeira grande,38.5167,-28.7,294.14,96,100,5.81,PT,1687481897
109,kapa'a,22.0752,-159.319,301.33,71,40,8.23,US,1687481898
110,albu kamal,34.45,40.9186,301.65,28,0,3.14,SY,1687481898
111,chilliwack,49.1747,-121.9443,300.66,49,19,3.13,CA,1687481899
112,kingston,17.997,-76.7936,303.68,77,20,8.75,JM,1687481620
113,oranjemund,-28.55,16.4333,287.54,56,0,3.05,NA,1687481900
114,sarykemer,43.0,71.5,290.86,23,0,3.4,KZ,1687481900
115,vangaindrano,-23.35,47.6,291.2,87,49,2.2,MG,1687481900
116,fort mcmurray,56.7268,-111.381,294.92,43,0,7.2,CA,1687481616
117,basco,20.4487,121.9702,301.37,76,100,1.75,PH,1687481901
118,saldanha,-33.0117,17.9442,283.18,59,0,8.87,ZA,1687481902
119,chonchi,-42.6128,-73.8092,280.99,91,0,1.88,CL,1687481902
120,okhotsk,59.3833,143.3,290.09,66,20,2.64,RU,1687481903
121,badger,64.8,-147.5333,297.08,57,75,4.12,US,1687481904
122,broken hill,-31.95,141.4333,283.25,68,0,9.29,AU,1687481904
123,shira,54.4911,89.9531,284.74,78,100,2.26,RU,1687481905
124,manokwari,-0.8667,134.0833,298.55,88,100,6.92,ID,1687481906
125,angaur state,6.906,134.13,301.62,73,100,4.79,PW,1687481906
126,port mathurin,-19.6833,63.4167,296.4,62,100,7.02,MU,1687481718
127,barcelos,41.5388,-8.6151,293.1,85,0,1.61,PT,1687481907
128,bobo-dioulasso,11.1771,-4.2979,299.4,78,0,1.03,BF,1687481908
129,klaksvik,62.2266,-6.589,284.66,86,24,4.16,FO,1687481909
130,nabire,-3.3667,135.4833,298.16,92,100,0.4,ID,1687481909
131,iskateley,67.6803,53.1512,279.25,80,98,3.89,RU,1687481910
132,kharkhorin,47.1975,102.8238,291.35,68,100,0.52,MN,1687481910
133,ebaye,8.7748,167.7392,303.16,79,40,7.2,MH,1687481911
134,bredasdorp,-34.5322,20.0403,282.73,86,0,2.46,ZA,1687481911
135,wamba,8.9333,8.6,295.74,91,99,0.2,NG,1687481912
136,fairview,40.8126,-73.999,294.05,75,100,2.68,US,1687481912
137,college,64.8569,-147.8028,297.12,61,75,4.12,US,1687481913
138,bhamo,24.2667,97.2333,297.18,100,100,0.58,MM,1687481913
139,sarmiento,-45.5882,-69.07,282.45,53,99,9.61,AR,1687481913
140,santana,-0.0583,-51.1817,301.25,83,40,3.6,BR,1687481915
141,rolla,37.9514,-91.7713,302.23,39,20,2.06,US,1687481915
142,mount isa,-20.7333,139.5,295.02,37,96,4.63,AU,1687481916
143,long beach,33.767,-118.1892,296.47,67,0,7.2,US,1687481808
144,aljezur,37.3191,-8.8033,291.83,71,0,3.93,PT,1687481917
145,petropavlovsk-kamchatsky,53.0452,158.6483,294.48,43,0,3.0,RU,1687481917
146,zheleznodorozhnyy,55.7503,38.0042,288.39,81,100,1.37,RU,1687481918
147,ararat,39.8317,44.7049,291.34,75,27,0.88,AM,1687481918
148,songea,-10.6833,35.65,285.17,80,0,1.12,TZ,1687481918
149,laguna,38.421,-121.4238,301.01,50,0,8.23,US,1687481919
150,yuzhno-kurilsk,44.0306,145.8556,287.06,80,100,1.77,RU,1687481919
151,plettenberg bay,-34.0527,23.3716,285.48,67,0,2.85,ZA,1687481920
152,taroa,8.7058,171.2275,301.33,78,62,6.6,MH,1687481920
153,cromwell,41.5951,-72.6454,294.98,77,100,2.25,US,1687481921
154,alaghsas,17.0187,8.0168,305.76,10,75,4.48,NE,1687481921
155,statesboro,32.4488,-81.7832,298.89,94,40,3.09,US,1687481922
156,hasaki,35.7333,140.8333,295.53,87,100,0.31,JP,1687481922
157,phan rang-thap cham,11.5667,108.9833,303.55,61,92,0.63,VN,1687481922
158,hovd,48.0056,91.6419,293.2,26,98,3.79,MN,1687481923
159,qaqortoq,60.7167,-46.0333,276.72,95,100,1.75,GL,1687481923
160,palikir - national government center,6.9248,158.1611,302.62,79,100,2.57,FM,1687481924
161,nantucket,41.2835,-70.0995,290.23,100,100,4.12,US,1687481628
162,barranca,-10.75,-77.7667,292.94,79,14,4.05,PE,1687481925
163,chuguyevka,44.1653,133.8633,288.3,94,100,1.07,RU,1687481925
164,shima,24.4478,117.8111,303.16,86,99,0.54,CN,1687481926
165,el nido,11.1858,119.3956,300.68,78,100,0.32,PH,1687481926
166,noumea,-22.2763,166.4572,297.14,99,37,4.78,NC,1687481926
167,zalingei,12.9096,23.4741,296.1,74,100,1.15,SD,1687481927
168,khabarovsk,48.4808,135.0928,295.04,68,0,2.0,RU,1687481927
169,talnakh,69.4865,88.3972,282.71,86,100,1.14,RU,1687481928
170,mount gambier,-37.8333,140.7667,283.09,78,18,0.05,AU,1687481928
171,jumla,29.2747,82.1838,291.87,88,100,0.35,NP,1687481929
172,laojunmiao,39.8333,97.7333,292.07,45,87,0.99,CN,1687481930
173,anadyr,64.75,177.4833,281.43,81,100,3.0,RU,1687481930
174,aykhal,66.0,111.5,287.15,91,100,0.86,RU,1687481932
175,touros,-5.1989,-35.4608,298.5,78,5,6.38,BR,1687481932
176,hakkari,37.5833,44.1667,284.42,80,0,2.23,TR,1687481933
177,rio preto da eva,-2.6994,-59.6997,299.54,74,89,1.18,BR,1687481933
178,katsuren-haebaru,26.3369,127.8719,302.36,85,75,4.12,JP,1687481934
179,vorgashor,67.5833,63.95,275.98,72,97,5.94,RU,1687481934
180,lerwick,60.1545,-1.1494,285.15,95,18,2.42,GB,1687481935
181,flying fish cove,-10.4217,105.6791,297.97,83,100,4.63,CX,1687481936
182,constantia,44.1833,28.65,291.53,76,1,2.05,RO,1687481646
183,goondiwindi,-28.55,150.3167,291.0,57,0,6.9,AU,1687481936
184,pimentel,-6.8367,-79.9342,296.31,78,0,6.69,PE,1687481937
185,saipan,15.1355,145.701,304.54,100,20,8.75,MP,1687481937
186,chingola,-12.529,27.8838,283.86,68,0,2.31,ZM,1687481938
187,mersa matruh,31.3525,27.2453,296.26,78,0,4.63,EG,1687481938
188,selkirk,50.1436,-96.8845,296.23,49,44,0.89,CA,1687481727
189,bartica,6.4,-58.6167,298.33,98,100,1.04,GY,1687481939
190,wailua homesteads,22.0669,-159.378,300.59,73,40,8.23,US,1687481940
191,olonkinbyen,70.9221,-8.7187,276.21,79,98,4.81,SJ,1687481940
192,kayes,14.0,-11.0,301.95,60,4,4.2,ML,1687481940
193,vieux-habitants,16.0589,-61.7659,299.91,77,100,7.8,GP,1687481941
194,torghay,49.6339,63.4981,286.43,66,50,5.47,KZ,1687481941
195,kanniyakumari,8.0833,77.5667,300.03,80,100,7.66,IN,1687481942
196,lihue,21.9789,-159.3672,300.92,71,40,8.23,US,1687481942
197,mogadishu,2.0371,45.3438,298.49,79,100,7.43,SO,1687481943
198,bamboo flat,11.7,92.7167,301.36,80,100,5.01,IN,1687481943
199,jamestown,42.097,-79.2353,295.92,81,100,2.57,US,1687481944
200,aitape,-3.1374,142.3475,300.82,77,100,0.53,PG,1687481944
201,atafu village,-8.5421,-172.5159,301.52,66,90,5.79,TK,1687481945
202,sitka,57.0531,-135.33,290.09,77,40,3.6,US,1687481945
203,hola,51.5377,23.1902,290.27,100,16,2.42,PL,1687481946
204,gisors,49.2818,1.7801,288.1,95,0,3.18,FR,1687481946
205,rosso,16.4986,-15.8153,299.93,71,10,4.84,SN,1687481947
206,juan griego,11.0817,-63.9655,295.22,100,82,5.14,VE,1687481948
207,santa rosalia,27.3167,-112.2833,306.01,26,31,1.06,MX,1687481948
208,saint-pierre,-21.3393,55.4781,292.97,73,0,3.09,RE,1687481948
209,golyshmanovo,56.3979,68.3728,279.89,79,100,2.33,RU,1687481949
210,tocopilla,-22.092,-70.1979,291.91,72,16,1.8,CL,1687481950
211,bikenibeu village,1.3673,173.1241,303.13,74,40,2.06,KI,1687481950
212,magadan,59.5667,150.8,288.0,68,60,2.29,RU,1687481951
213,portland,45.5234,-122.6762,304.71,28,20,5.66,US,1687481909
214,maffra,-37.9667,146.9833,285.52,57,53,1.46,AU,1687481952
215,taulaga,-11.0553,-171.0883,300.8,68,14,3.57,AS,1687481952
216,ried im innkreis,48.2112,13.4886,291.25,92,92,6.78,AT,1687481952
217,port lincoln,-34.7333,135.8667,288.04,66,3,7.09,AU,1687481953
218,fort-shevchenko,44.5086,50.263,294.68,45,100,4.55,KZ,1687481953
219,cidreira,-30.1811,-50.2056,289.53,89,48,1.52,BR,1687481954
220,izluchinsk,60.9794,76.9242,280.16,73,25,4.46,RU,1687481954
221,mount pleasant,32.7941,-79.8626,299.82,81,0,5.14,US,1687481955
222,tubarjal,30.4999,38.216,298.06,37,0,6.58,SA,1687481955
223,alta,69.9689,23.2717,290.74,68,0,3.09,NO,1687481956
224,krasnaya yaruga,50.8008,35.6583,287.8,79,99,4.2,RU,1687481956
225,zavodoukovsk,56.5042,66.5515,281.54,78,100,1.94,RU,1687481957
226,murzuq,25.9155,13.9184,299.45,23,0,5.33,LY,1687481957
227,kenai,60.5544,-151.2583,286.2,93,100,3.09,US,1687481958
228,leshan,29.5623,103.7639,297.11,70,100,0.35,CN,1687481958
229,livani,56.3543,26.1758,285.8,98,100,1.93,LV,1687481778
230,nadi,-17.8,177.4167,300.15,57,20,3.09,FJ,1687481959
231,berber,18.0216,33.983,302.4,14,66,4.8,SD,1687481960
232,correntina,-13.3433,-44.6367,292.63,53,1,2.03,BR,1687481960
233,al kharj,24.155,47.3346,304.47,17,0,0.93,SA,1687481961
234,prainha,-1.8,-53.48,296.18,95,0,1.14,BR,1687481961
235,daru,-9.0763,143.2092,300.42,74,100,4.57,PG,1687481961
236,shache,38.4167,77.2406,302.28,21,0,0.64,CN,1687481962
237,east london,-33.0153,27.9116,286.57,75,10,5.66,ZA,1687481962
238,bushehr,28.9684,50.8385,299.2,65,0,0.0,IR,1687481963
239,lake havasu city,34.4839,-114.3224,310.49,3,0,7.72,US,1687481792
240,tsiombe,-25.3,45.4833,291.48,84,87,3.71,MG,1687481964
241,valparaiso,-33.0393,-71.6273,288.15,73,100,2.47,CL,1687481906
242,gadzhiyevo,69.2551,33.3362,286.98,69,6,3.51,RU,1687481965
243,namdrik,5.5994,168.1028,301.6,77,3,7.72,MH,1687481965
244,eureka,40.8021,-124.1637,288.82,85,100,1.34,US,1687481966
245,lompoc,34.6391,-120.4579,294.83,71,75,5.81,US,1687481966
246,i-n-salah,27.1935,2.4607,307.16,9,1,3.99,DZ,1687481966
247,hit,33.6416,42.8251,303.57,22,0,2.8,IQ,1687481967
248,ust-nera,64.5667,143.2,295.09,32,74,2.69,RU,1687481967
249,mount pearl,47.5166,-52.7813,287.34,90,100,2.06,CA,1687481968
250,kudahuvadhoo,2.6708,72.8944,301.29,76,100,6.45,MV,1687481968
251,rancho palos verdes,33.7445,-118.387,295.37,74,0,3.13,US,1687481969
252,tolanaro,-25.0319,46.9987,293.19,88,20,3.09,MG,1687481969
253,inarajan village,13.2736,144.7484,303.93,83,100,8.08,GU,1687481970
254,howard springs,-12.497,131.047,301.94,52,100,1.97,AU,1687481970
255,morehead city,34.7229,-76.726,299.17,89,40,4.12,US,1687481971
256,sinabang,2.4803,96.3801,300.83,77,95,3.66,ID,1687481971
257,kapuskasing,49.4169,-82.4331,303.2,32,0,4.12,CA,1687481971
258,chulym,55.0997,80.9572,282.49,85,100,4.76,RU,1687481972
259,siwa oasis,29.2041,25.5195,298.03,50,0,2.99,EG,1687481972
260,mbeni,-11.5014,43.3775,295.57,68,0,6.19,KM,1687481973
261,saudarkrokur,65.7461,-19.6394,283.98,92,100,2.73,IS,1687481973
262,garbahaarrey,3.3289,42.2209,296.18,73,72,8.12,SO,1687481974
263,utrik,11.2278,169.8474,301.01,76,45,6.17,MH,1687481974
264,riohacha,11.5444,-72.9072,304.21,74,0,2.57,CO,1687481902
265,znamenskoye,57.1281,73.8282,278.5,89,71,2.57,RU,1687481975
266,inderbor,48.55,51.7833,287.66,48,76,2.96,KZ,1687481976
267,zaragoza,41.6561,-0.8773,294.83,60,0,4.63,ES,1687481976
268,koutiala,12.3917,-5.4642,301.45,63,98,3.8,ML,1687481977
269,atar,20.5169,-13.0499,307.64,18,75,7.06,MR,1687481977
270,aberystwyth,52.4155,-4.0829,286.88,92,100,2.17,GB,1687481978
271,nishinoomote,30.7333,131.0,298.46,88,75,5.66,JP,1687481978
272,santa rosa,14.3122,121.1114,303.76,78,19,3.42,PH,1687481873
273,hilo,19.7297,-155.09,301.62,70,0,3.6,US,1687481979
274,carnarvon,-24.8667,113.6333,288.96,64,58,3.39,AU,1687481980
275,mitu,1.1983,-70.1733,295.88,98,100,0.38,CO,1687481980
276,elko,41.0002,-115.5012,298.16,21,100,4.02,US,1687481981
277,sann,26.0418,68.1378,303.1,66,2,6.12,PK,1687481981
278,katabu,-4.9333,122.5167,300.47,76,90,3.0,ID,1687481982
279,brooks,50.5834,-111.8851,296.14,23,11,3.09,CA,1687481771
280,kununurra,-15.7667,128.7333,301.16,34,47,2.73,AU,1687481983
281,west valley,46.5921,-120.6051,300.63,25,40,2.06,US,1687481983
282,askoy,60.4092,5.226,286.46,96,75,1.54,NO,1687481984
283,vilyuchinsk,52.9306,158.4028,295.3,50,6,2.17,RU,1687481984
284,kerikeri,-35.2268,173.9474,289.46,83,92,2.19,NZ,1687481985
285,chibougamau,49.9168,-74.3659,294.94,68,100,1.54,CA,1687481985
286,talara,-4.5772,-81.2719,296.57,78,0,7.2,PE,1687481986
287,port saint john's,-31.6229,29.5448,286.41,75,6,2.8,ZA,1687481986
288,neryungri,56.6709,124.6491,289.04,60,18,3.68,RU,1687481987
289,lucea,18.451,-78.1736,302.07,82,100,4.92,JM,1687481987
290,nouadhibou,20.931,-17.0347,299.14,57,100,7.72,MR,1687481720
291,acapulco de juarez,16.8634,-99.8901,302.8,71,17,2.73,MX,1687481988
292,harper,4.375,-7.7169,298.37,80,55,3.78,LR,1687481989
293,poronaysk,49.2167,143.1167,288.26,76,100,3.22,RU,1687481989
294,geeste,52.6,7.2667,289.94,100,100,2.57,DE,1687481989
295,vila velha,-20.3297,-40.2925,292.56,79,0,1.03,BR,1687481990
296,al khaburah,23.9886,57.0984,304.26,80,5,3.37,OM,1687481990
297,broome,42.2506,-75.833,295.58,73,100,2.57,US,1687481991
298,calvinia,-31.4707,19.776,284.31,33,0,4.16,ZA,1687481991
299,kolokani,13.5728,-8.0339,303.69,50,4,4.06,ML,1687481992
300,palmer,42.1584,-72.3287,294.44,70,100,2.55,US,1687481992
301,la passe,45.5549,-0.8967,290.92,87,5,2.84,FR,1687481993
302,steinbach,50.1667,8.5667,292.19,77,75,6.17,DE,1687481993
303,esteli,13.0919,-86.3538,294.68,91,100,1.64,NI,1687481994
304,zubova polyana,54.0771,42.8372,283.8,96,100,2.99,RU,1687481994
305,kish,26.5578,54.0194,302.3,94,1,3.09,IR,1687481994
306,lebu,-37.6167,-73.65,286.08,93,100,3.82,CL,1687481886
307,miri,4.4148,114.0089,301.23,83,20,1.54,MY,1687481995
308,ruidoso,33.3317,-105.673,303.68,13,0,9.26,US,1687481996
309,pinehurst,35.1954,-79.4695,297.76,93,100,2.06,US,1687481996
310,bagan serai,5.0108,100.541,303.16,90,96,0.95,MY,1687481997
311,salinopolis,-0.6136,-47.3561,299.15,85,13,5.07,BR,1687481998
312,villiers,-27.0303,28.6006,278.41,84,0,2.47,ZA,1687481998
313,betio village,1.358,172.9211,303.17,73,63,5.91,KI,1687481998
314,dunedin,-45.8742,170.5036,284.15,91,100,0.47,NZ,1687481999
315,ancud,-41.8697,-73.8203,283.38,88,53,5.05,CL,1687481999
316,ulsteinvik,62.3432,5.8487,286.99,91,100,6.26,NO,1687482000
317,zemio,5.0314,25.1361,292.82,99,100,1.26,CF,1687482001
318,agua branca,-5.8922,-42.6361,299.07,47,54,3.07,BR,1687482002
319,kyelang,32.5833,77.0333,281.04,59,0,2.82,IN,1687482004
320,onega,63.9061,38.1404,282.31,77,0,3.65,RU,1687482006
321,tequesta,26.9681,-80.1286,303.16,88,100,0.45,US,1687482007
322,las lomitas,-24.7096,-60.593,289.17,97,8,1.29,AR,1687482008
323,az zulfi,26.2995,44.8154,304.0,16,3,7.59,SA,1687482008
324,san jose temascatio,20.6833,-101.2667,306.57,17,41,10.46,MX,1687482009
325,belmonte,-15.8631,-38.8828,292.48,95,44,1.14,BR,1687482010
326,la sarre,48.8002,-79.1996,294.59,66,0,1.76,CA,1687482010
327,sault ste. marie,46.5168,-84.3333,301.31,48,0,1.54,CA,1687481898
328,caleta de carquin,-11.0925,-77.6267,292.98,80,0,6.33,PE,1687482011
329,el granada,37.5027,-122.4694,294.5,76,100,8.23,US,1687482012
330,goundam,16.4145,-3.6708,308.24,29,15,5.04,ML,1687482013
331,ulanhot,46.0833,122.0833,296.06,49,16,2.69,CN,1687482014
332,yantarnyy,54.8717,19.9381,286.07,80,100,4.14,RU,1687482014
333,balnearia,-31.0088,-62.6673,285.7,78,0,3.87,AR,1687482015
334,bonthe,7.5264,-12.505,297.89,88,100,2.73,SL,1687482015
335,lazaro cardenas,17.9583,-102.2,302.29,67,20,4.56,MX,1687482016
336,ornskoldsvik,63.2909,18.7153,286.68,82,20,6.17,SE,1687482016
337,holualoa,19.6228,-155.9522,300.12,75,58,2.24,US,1687482017
338,chikwawa,-16.0335,34.8009,291.03,91,0,1.77,MW,1687482018
339,hammerfest,70.6634,23.6821,291.4,68,0,4.12,NO,1687482018
340,komsomolets,53.7453,62.0708,282.94,74,100,0.66,KZ,1687482020
341,canutama,-6.5339,-64.3831,299.4,72,100,0.68,BR,1687482022
342,pisco,-13.7,-76.2167,292.18,77,0,6.17,PE,1687482023
343,ryotsu-minato,38.0833,138.4333,293.76,94,17,5.86,JP,1687482024
344,haiku-pauwela,20.9219,-156.3051,303.16,68,20,11.32,US,1687482025
345,happy valley-goose bay,53.3168,-60.3315,286.32,88,100,1.54,CA,1687482026
346,prince rupert,54.3161,-130.3201,289.2,75,20,3.6,CA,1687482026
347,huarmey,-10.0681,-78.1522,293.08,82,0,5.58,PE,1687482028
348,galesong,-5.3166,119.3661,300.16,76,6,3.13,ID,1687482028
349,west fargo,46.875,-96.9004,297.15,60,20,5.66,US,1687481760
350,egilsstadir,65.2653,-14.3948,285.1,66,0,5.66,IS,1687482029
351,nova sintra,14.8667,-24.7167,293.81,86,0,10.69,CV,1687482029
352,san juan de los morros,9.9115,-67.3538,296.74,91,100,0.72,VE,1687482030
353,yaren,-0.5472,166.916,301.87,71,100,3.33,NR,1687482030
354,martapura,-3.4167,114.85,297.2,94,20,1.03,ID,1687482031
355,ciudad lazaro cardenas,17.9583,-102.2,302.29,67,20,4.56,MX,1687482031
356,isla mujeres,21.2311,-86.731,299.91,75,100,5.0,MX,1687482004
357,al mijlad,11.0333,27.7333,300.93,66,100,7.66,SD,1687482032
358,filiatra,37.15,21.5833,297.42,73,0,1.56,GR,1687482033
359,redencao,-4.2258,-38.7306,295.74,92,0,1.12,BR,1687482033
360,mermoz boabab,14.7065,-17.4758,301.03,78,20,3.09,SN,1687482034
361,prairieville,30.303,-90.9721,303.83,75,0,0.0,US,1687482034
362,zhukovo,55.0318,36.744,289.03,95,100,0.74,RU,1687482035
363,melekeok village,7.4957,134.6367,299.46,89,100,3.6,PW,1687482035
364,parabel',58.6978,81.4825,278.92,94,100,4.46,RU,1687482036
365,yarmouth,41.7057,-70.2286,290.35,96,100,4.02,US,1687482036
366,dadukou,26.5479,101.7054,293.02,95,100,0.77,CN,1687482037
367,nova vicosa,-17.8919,-39.3719,293.81,72,99,1.3,BR,1687482037
368,tchintabaraden,15.8969,5.7985,303.83,44,93,6.35,NE,1687482038
369,al khums,32.6486,14.2619,296.98,69,0,1.28,LY,1687482039
370,polyarnyy,69.1989,33.4478,287.51,68,6,3.32,RU,1687482039
371,aldan,58.6031,125.3894,291.15,51,42,1.42,RU,1687482040
372,dudinka,69.4058,86.1778,282.94,69,98,3.78,RU,1687482041
373,korla,41.7597,86.1469,299.89,35,100,1.99,CN,1687482041
374,tadine,-21.55,167.8833,295.4,61,21,6.91,NC,1687482042
375,mukalla,14.5425,49.1242,303.08,79,18,2.77,YE,1687482042
376,chaoyang,41.5703,120.4586,303.66,34,57,2.33,CN,1687482043
377,orcopampa,-15.2661,-72.3417,279.23,45,0,1.95,PE,1687482043
378,machico,32.7,-16.7667,294.5,81,20,5.14,PT,1687482044
379,nago,26.5881,127.9761,302.39,89,100,6.06,JP,1687482044
380,la'ie,21.6477,-157.9253,304.13,69,0,4.92,US,1687482044
381,umarkot,25.3616,69.7362,302.46,64,67,7.59,PK,1687482045
382,maragogi,-9.0122,-35.2225,296.88,89,74,5.5,BR,1687482046
383,la ronge,55.1001,-105.2842,294.29,28,20,1.54,CA,1687482046
384,awjilah,29.1081,21.2869,297.6,42,0,4.47,LY,1687482047
385,blackwater,-23.5833,148.8833,295.92,56,100,2.62,AU,1687482047
386,belyy yar,53.6039,91.3903,287.09,77,0,5.0,RU,1687482048
387,sola,-13.8833,167.55,298.33,74,100,7.9,VU,1687482048
388,poquoson,37.1224,-76.3458,298.14,93,75,2.57,US,1687482049
389,champasak,14.75,106.0,300.64,73,100,0.58,LA,1687482050
390,casper,42.8666,-106.3131,287.48,88,100,5.66,US,1687481817
391,ar rutbah,33.0381,40.2848,299.06,28,0,3.53,IQ,1687482051
392,qujing,25.4833,103.7833,286.81,96,100,3.69,CN,1687482051
393,antigonish,45.6169,-61.9986,295.25,60,35,5.22,CA,1687482007
394,paredon,16.0333,-93.8667,301.35,68,0,1.36,MX,1687482052
395,bandar abbas,27.1865,56.2808,303.14,74,86,3.09,IR,1687482029
396,oltinko'l,40.8011,72.1634,298.81,34,82,2.94,UZ,1687482053
397,turpan,42.9333,89.1667,306.1,22,94,0.6,CN,1687482054
398,vernon,50.2581,-119.2691,298.89,39,17,3.58,CA,1687481994
399,romano d'ezzelino,45.7964,11.7563,297.54,83,21,1.87,IT,1687482055
400,san patricio,28.017,-97.5169,306.58,67,8,6.99,US,1687481823
401,sukabumi,-6.9181,106.9267,296.15,90,94,0.37,ID,1687482056
402,usogorsk,63.4106,48.6872,282.04,65,32,0.87,RU,1687482056
403,faya-largeau,17.9257,19.1043,306.03,15,14,5.87,TD,1687482057
404,nguigmi,14.2495,13.1092,303.08,51,100,3.63,NE,1687482057
405,leninskoye,41.7589,69.3864,295.65,18,0,1.74,KZ,1687482058
406,puerto aysen,-45.4,-72.7,279.54,98,100,2.99,CL,1687482058
407,dabat,12.9842,37.765,286.63,72,100,0.95,ET,1687482059
408,myitkyina,25.3833,97.4,296.73,100,100,0.88,MM,1687482059
409,pathein,16.7833,94.7333,298.44,94,100,1.94,MM,1687482060
410,angra do heroismo,38.65,-27.2167,295.49,96,40,3.58,PT,1687481805
411,mollendo,-17.0231,-72.0147,290.93,78,34,4.5,PE,1687482061
412,port shepstone,-30.7414,30.455,283.39,82,0,2.25,ZA,1687482061
413,port douglas,-16.4833,145.4667,298.14,65,67,3.02,AU,1687482062
414,salanso,12.1833,-4.0833,299.45,73,94,2.17,BF,1687482062
415,quellon,-43.1167,-73.6167,282.09,89,57,3.05,CL,1687482063
416,ko pha ngan,9.7578,100.0291,299.53,73,14,5.56,TH,1687482063
417,kaniv,49.7518,31.46,291.42,65,65,3.02,UA,1687482064
418,toliara,-23.35,43.6667,293.0,82,63,4.45,MG,1687482064
419,guerrero negro,27.9769,-114.0611,292.27,67,100,9.57,MX,1687482065
420,kirakira,-10.4544,161.9205,301.75,77,95,4.38,SB,1687482065
421,san carlos,9.6612,-68.5827,297.35,91,98,1.27,VE,1687482066
422,grand falls-windsor,48.9332,-55.6649,291.76,65,100,3.72,CA,1687482067
423,jabor,5.921,169.6434,301.66,76,43,6.95,MH,1687482067
424,romano di lombardia,45.5246,9.7484,298.92,61,0,2.06,IT,1687482068
425,cockburn town,21.4612,-71.1419,301.37,86,54,10.91,TC,1687482068
426,tobelo,1.7284,128.0095,301.92,64,89,0.31,ID,1687482069
427,takaungu,-3.6837,39.8566,297.11,83,100,5.72,KE,1687482069
428,san juan de miraflores,-12.1629,-76.9635,293.44,80,53,4.26,PE,1687482069
429,shimokizukuri,40.8061,140.3861,292.38,88,100,1.4,JP,1687482070
430,abuja,9.0574,7.4898,297.23,93,100,1.17,NG,1687482005
431,puerto baquerizo moreno,-0.9,-89.6,297.42,79,100,7.32,EC,1687482010
432,santa cruz,-17.8,-63.1667,296.85,83,20,4.63,BO,1687482009
433,ust'-charyshskaya pristan',52.3934,83.6635,287.54,60,59,2.21,RU,1687482072
434,livny,52.4253,37.6069,288.48,94,100,4.99,RU,1687482073
435,leua,48.2156,18.6071,297.87,89,5,3.76,SK,1687482073
436,diapaga,12.0708,1.7889,299.17,72,47,1.43,BF,1687482074
437,akdagmadeni,39.6603,35.8836,282.3,95,50,2.66,TR,1687482074
438,puerto armuelles,8.2833,-82.8667,297.14,90,100,0.4,PA,1687482075
439,aswan,24.0934,32.907,300.26,24,0,4.17,EG,1687482075
440,vail,32.0479,-110.712,309.99,7,12,1.79,US,1687481992
441,crane,31.3974,-102.3501,312.56,13,79,0.85,US,1687482076
442,tofol,5.3248,163.0078,304.03,66,75,6.17,FM,1687482076
443,coahuayana de hidalgo,18.7,-103.6583,302.31,62,6,2.45,MX,1687482077
444,nueva gerona,21.8833,-82.8,302.63,69,100,1.88,CU,1687482077
445,macapa,0.0389,-51.0664,301.14,83,40,3.6,BR,1687482078
446,gaspe,48.8334,-64.4819,296.27,64,100,2.06,CA,1687482078
447,ta`u,-14.2336,-169.5144,300.53,77,34,3.51,AS,1687482079
448,saint-louis,16.3333,-15.0,304.95,60,89,6.78,SN,1687482079
449,luderitz,-26.6481,15.1594,288.15,52,0,0.78,NA,1687482080
450,rawah,34.4816,41.9093,301.69,24,0,2.86,IQ,1687482080
451,hafar al-batin,28.4328,45.9708,303.47,25,0,2.06,SA,1687482081
452,tazovsky,67.4667,78.7,277.16,76,99,2.39,RU,1687482081
453,menongue,-14.6585,17.691,281.63,40,0,2.02,AO,1687482082
454,corner brook,48.9667,-57.9484,291.24,81,100,2.6,CA,1687482082
455,ixtapa,20.7,-105.2,303.28,74,20,5.14,MX,1687482083
456,isangel,-19.55,169.2667,296.78,54,18,4.01,VU,1687482083
457,remire-montjoly,4.9167,-52.2667,299.17,89,0,1.03,GF,1687482083
458,ketchikan,55.3422,-131.6461,286.64,84,100,2.3,US,1687482017
459,ugoofaaru,5.6667,73.0,301.27,77,100,7.38,MV,1687482084
460,emmett,43.8735,-116.4993,299.93,24,100,0.89,US,1687482085
461,ad dawadimi,24.5077,44.3924,301.79,13,90,4.98,SA,1687482085
462,north battleford,52.7834,-108.2847,294.2,40,0,3.09,CA,1687482003
463,kavaratti,10.5669,72.642,302.11,73,99,8.42,IN,1687482086
464,nuuk,64.1835,-51.7216,276.49,93,100,2.57,GL,1687482087
465,torres,-29.3353,-49.7269,293.05,95,100,0.71,BR,1687482087
466,macau,22.2006,113.5461,304.04,79,40,7.72,MO,1687482088
467,reggane,26.7158,0.1714,308.62,10,0,2.46,DZ,1687482088
468,rio grande,-32.035,-52.0986,285.21,86,4,0.18,BR,1687482089
469,aioun,16.6614,-9.6149,309.34,25,5,4.24,MR,1687482089
470,ascension,30.2169,-90.9001,303.86,72,0,0.0,US,1687482090
471,dul'durga,50.6761,113.5931,295.7,35,12,4.64,RU,1687482090
472,naxos,37.1056,25.3764,298.32,73,0,5.36,GR,1687481890
473,nicoya,10.1483,-85.452,298.69,88,100,0.77,CR,1687482091
474,katsuura,35.1333,140.3,294.16,87,100,2.14,JP,1687482092
475,santiago,-33.4569,-70.6483,289.61,85,100,3.6,CL,1687482092
476,santanyi,39.3546,3.1291,297.41,80,90,3.4,ES,1687482093
477,ar ruways,24.1103,52.7306,303.56,57,0,4.69,AE,1687482093
478,monrovia,6.3005,-10.7969,298.31,84,100,4.33,LR,1687482094
479,petropavl,54.8753,69.1628,281.14,93,100,3.0,KZ,1687482094
480,polewali,-3.4324,119.3435,300.92,78,23,1.61,ID,1687482095
481,kampung sungai ara,5.327,100.2735,303.1,70,20,0.0,MY,1687482095
482,ilhabela,-23.7781,-45.3581,293.53,70,5,1.92,BR,1687482096
483,tongchuanshi,35.0806,109.0897,299.51,49,35,2.28,CN,1687482096
484,khovd,48.0056,91.6419,293.2,26,98,3.79,MN,1687481923
485,mapleton,40.1302,-111.5785,300.69,28,40,1.54,US,1687482097
486,rongelap,11.1635,166.8941,301.12,75,100,7.41,MH,1687482098
487,cide,41.8921,33.0044,292.68,65,29,2.92,TR,1687482098
488,nellore,14.4333,79.9667,302.75,66,100,1.9,IN,1687482099
489,gaogou,34.0175,119.1886,305.41,35,100,1.28,CN,1687482099
490,tidjikja,18.5564,-11.4271,307.68,13,81,3.35,MR,1687482100
491,tenenkou,14.4572,-4.9169,307.28,37,67,6.28,ML,1687482100
492,siguiri,11.6667,-9.5,299.48,69,9,1.94,GN,1687482101
493,jayapura,-2.5333,140.7,299.81,76,95,0.63,ID,1687482101
494,conduaga,8.862,117.4893,299.89,81,100,0.42,PH,1687482102
495,cabedelo,-6.9811,-34.8339,296.52,84,7,5.56,BR,1687482102
496,ginir,7.1333,40.7,286.29,91,100,2.03,ET,1687482103
497,pundong,-7.9522,110.3486,298.99,81,46,1.95,ID,1687482103
498,richards bay,-28.783,32.0377,289.03,72,74,1.71,ZA,1687482104
499,coquimbo,-29.9533,-71.3436,290.0,72,0,1.54,CL,1687481938
500,ndele,8.4109,20.6473,293.78,97,100,1.53,CF,1687482105
501,malango,-2.9627,119.9001,298.05,71,62,1.14,ID,1687482105
502,lethem,3.3803,-59.7968,298.43,85,64,2.21,GY,1687482105
503,nadvoitsy,63.8667,34.3167,284.05,89,100,2.54,RU,1687482106
504,devils lake,48.1128,-98.8651,294.21,67,100,4.63,US,1687482106
505,malaunay,49.5271,1.0429,289.38,85,0,2.06,FR,1687482107
506,masuguru,-11.3667,38.4167,290.89,71,0,1.29,TZ,1687482107
507,goderich,43.7501,-81.7165,293.66,73,42,1.03,CA,1687481920
508,kismayo,-0.3582,42.5454,298.15,80,96,6.71,SO,1687482108
509,chinde,26.8418,88.0763,293.11,91,81,1.29,NP,1687482109
510,naha,26.2125,127.6811,302.3,93,75,6.69,JP,1687482109
511,pagar alam,-4.0167,103.2667,295.64,95,88,0.67,ID,1687482110
512,barra de santo antonio,-9.4047,-35.5072,295.75,86,33,5.95,BR,1687482110
513,minas de marcona,-15.2119,-75.1103,286.24,87,75,6.29,PE,1687482111
514,flagstaff,35.1981,-111.6513,299.04,14,0,9.77,US,1687481842
515,kupang,-10.1667,123.5833,301.47,69,20,5.14,ID,1687482112
516,madera,37.1666,-119.8343,299.57,35,100,4.37,US,1687482113
517,tamandare,-8.7597,-35.1047,297.17,88,51,5.2,BR,1687482113
518,kolonia,50.9333,6.95,290.79,85,75,8.23,DE,1687482114
519,mirabela,-16.2628,-44.1644,288.76,57,0,1.67,BR,1687482114
520,comodoro rivadavia,-45.8667,-67.5,284.07,50,0,1.03,AR,1687481975
521,tomatlan,19.9333,-105.25,301.59,64,14,1.77,MX,1687482115
522,porto novo,6.4965,2.6036,299.05,90,52,3.17,BJ,1687482115
523,penha,-26.7694,-48.6458,293.08,94,0,3.09,BR,1687482116
524,al wajh,26.2455,36.4525,300.12,83,0,3.6,SA,1687482076
525,aqadyr,48.2553,72.8483,289.2,49,100,4.36,KZ,1687482117
526,kangding,30.0513,101.9603,288.95,86,100,0.67,CN,1687482117
527,sogndal,61.2283,7.1003,286.36,81,40,5.14,NO,1687482118
528,hami,42.8,93.45,302.81,16,71,3.93,CN,1687482118
529,san antonio de pale,-1.4014,5.6325,296.2,76,37,4.95,GQ,1687482051
530,colesberg,-30.72,25.0972,280.25,52,0,1.72,ZA,1687482119
531,queenstown,-31.8976,26.8753,277.25,83,0,0.41,ZA,1687482076
532,eyl,7.9803,49.8164,298.39,70,10,8.94,SO,1687482120
533,timimoun,29.2639,0.231,305.36,8,0,2.06,DZ,1687482121
534,kwang binh,17.4833,106.6,305.08,58,100,3.98,VN,1687482121
535,qinnan,33.2531,119.9133,302.73,47,100,2.02,CN,1687482122
536,likhoslavl',57.1275,35.464,288.16,98,100,1.05,RU,1687482123
537,leh,34.1667,77.5833,287.45,25,0,2.11,IN,1687482123
538,tapa,59.2606,25.9586,285.03,97,8,2.5,EE,1687482124
539,santa margalida,39.7014,3.1022,297.24,89,42,1.16,ES,1687482125
540,racine,42.7495,-88.0751,297.2,63,4,1.34,US,1687482125
541,carolina beach,34.0352,-77.8936,299.34,87,1,7.06,US,1687482126
542,ibotirama,-12.1853,-43.2206,295.23,48,18,1.65,BR,1687482126
543,kani keli,-12.9536,45.1033,298.74,68,13,8.28,YT,1687482127
544,terenos,-20.4422,-54.8603,294.99,64,0,2.57,BR,1687482128
545,uturoa,-16.7333,-151.4333,299.52,79,60,7.04,PF,1687482128
546,alcala de guadaira,37.3379,-5.8395,297.95,55,0,1.54,ES,1687482129
547,eastham,41.8301,-69.9739,290.14,86,100,3.58,US,1687482129
548,greenville,35.6127,-77.3663,298.24,94,40,1.54,US,1687481566
549,kiunga,-6.1219,141.2906,297.82,85,100,1.62,PG,1687482130
550,arno,60.1167,18.6333,287.05,81,87,1.58,SE,1687482131
551,zadar,44.1197,15.2422,294.49,94,0,2.06,HR,1687482131
552,sharifabad,35.4202,51.7926,299.73,28,0,1.88,IR,1687482132
553,al-hamdaniya,36.2715,43.3737,301.91,23,0,2.67,IQ,1687482133
554,salekhard,66.53,66.6019,278.1,79,95,4.04,RU,1687482133
555,olinda,-8.0089,-34.8553,297.0,94,75,4.63,BR,1687482134
556,wai,17.9333,73.9,295.72,88,100,1.52,IN,1687482134
557,idri,27.5,13.2667,298.66,22,0,4.61,LY,1687482135
