City_ID,City,Lat,Lng,Max Temp,Humidity,Cloudiness,Wind Speed,Country,Date
0,geraldton,-28.7667,114.6,294.38,68,40,7.2,AU,1685600435
1,albany,42.6001,-73.9662,291.38,66,0,0.45,US,1685600302
2,betio village,1.358,172.9211,303.17,75,35,4.46,KI,1685600437
3,kayangel,8.0823,134.7173,302.0,71,100,0.8,PW,1685600437
4,langsa,4.4683,97.9683,305.1,58,100,1.88,ID,1685600438
5,stanley,54.868,-1.6985,283.58,88,35,1.76,GB,1685600438
6,olonkinbyen,70.9221,-8.7187,274.0,77,8,5.19,SJ,1685600439
7,atafu village,-8.5421,-172.5159,301.6,66,74,3.78,TK,1685600439
8,kapuskasing,49.4169,-82.4331,293.2,55,40,2.06,CA,1685600992
9,utrik,11.2278,169.8474,300.88,80,76,8.78,MH,1685600440
10,port-aux-francais,-49.35,70.2167,277.82,67,51,15.53,TF,1685600440
11,chonchi,-42.6128,-73.8092,280.99,97,53,1.5,CL,1685600441
12,timmins,48.4669,-81.3331,291.05,77,75,2.57,CA,1685600441
13,tiksi,71.6872,128.8694,277.43,64,77,1.65,RU,1685600442
14,mehtar lam,34.6714,70.2094,294.51,65,100,3.93,AF,1685600442
15,sitka,57.0531,-135.33,281.09,81,100,2.57,US,1685600443
16,waddan,29.1614,16.139,292.87,74,10,4.38,LY,1685600443
17,pacific grove,36.6177,-121.9166,285.97,84,100,3.6,US,1685600418
18,katsuura,35.1333,140.3,294.48,71,91,6.64,JP,1685600444
19,grytviken,-54.2811,-36.5092,277.64,90,100,3.88,GS,1685600445
20,as sulayyil,20.4607,45.5779,308.29,24,99,1.0,SA,1685600445
21,bamboo flat,11.7,92.7167,305.2,66,40,5.14,IN,1685600446
22,new norfolk,-42.7826,147.0587,284.1,60,13,1.34,AU,1685600446
23,khandyga,62.6667,135.6,296.09,31,58,4.65,RU,1685600447
24,bethel,41.3712,-73.414,287.0,86,0,0.0,US,1685600447
25,puerto baquerizo moreno,-0.9,-89.6,298.27,80,86,5.9,EC,1685600448
26,minas de marcona,-15.2119,-75.1103,286.15,89,37,3.18,PE,1685600448
27,bodo,67.28,14.405,278.17,73,75,9.26,NO,1685600449
28,taltal,-25.4,-70.4833,288.25,82,43,0.58,CL,1685600449
29,puerto natales,-51.7236,-72.4875,273.58,95,25,1.34,CL,1685600450
30,st. john's,47.5649,-52.7093,278.23,84,40,2.57,CA,1685600318
31,thompson,55.7435,-97.8558,286.24,82,100,2.57,CA,1685600450
32,waitangi,-43.9535,-176.5597,285.83,94,67,8.74,NZ,1685600451
33,georgetown,5.4112,100.3354,307.12,59,40,3.6,MY,1685600363
34,blackmans bay,-43.0167,147.3167,283.44,67,15,6.03,AU,1685600452
35,kyaikkami,16.08,97.5675,302.68,67,91,4.05,MM,1685600452
36,bilibino,68.0546,166.4372,280.56,25,4,6.8,RU,1685600452
37,invercargill,-46.4,168.35,286.42,70,45,6.77,NZ,1685600453
38,iqaluit,63.7506,-68.5145,271.0,80,75,9.77,CA,1685600453
39,port lincoln,-34.7333,135.8667,288.37,90,100,6.03,AU,1685600203
40,adamstown,-25.066,-130.1015,297.0,84,100,10.83,PN,1685600454
41,fort mcmurray,56.7268,-111.381,290.92,63,100,4.12,CA,1685600455
42,shenjiamen,29.9576,122.298,295.74,95,93,4.81,CN,1685600455
43,yellowknife,62.456,-114.3525,284.02,71,20,2.57,CA,1685601007
44,coquimbo,-29.9533,-71.3436,286.0,100,75,2.06,CL,1685600170
45,uturoa,-16.7333,-151.4333,298.0,62,13,6.29,PF,1685600456
46,college,64.8569,-147.8028,283.33,49,40,6.69,US,1685600264
47,agat village,13.3886,144.6585,302.79,72,20,7.2,GU,1685600457
48,papatowai,-46.5619,169.4708,285.72,82,58,3.85,NZ,1685600458
49,port mathurin,-19.6833,63.4167,297.18,64,19,5.7,MU,1685600458
50,san pedro de macoris,18.4616,-69.2972,299.22,90,96,3.02,DO,1685600459
51,whitehorse,60.7161,-135.0538,281.1,37,20,6.69,CA,1685600835
52,flying fish cove,-10.4217,105.6791,297.97,88,75,5.14,CX,1685600459
53,edinburgh of the seven seas,-37.0676,-12.3116,285.12,74,97,4.86,SH,1685600460
54,udachny,66.4167,112.4,288.4,19,0,0.21,RU,1685600460
55,isafjordur,66.0755,-23.124,282.25,87,25,4.38,IS,1685600461
56,krasnokamensk,50.0979,118.0369,292.45,27,57,5.86,RU,1685600461
57,daru,-9.0763,143.2092,299.48,84,52,6.76,PG,1685600462
58,sinop,41.7711,34.8709,290.39,68,13,1.87,TR,1685600462
59,atbasar,51.8,68.3333,302.02,30,67,3.88,KZ,1685600463
60,holualoa,19.6228,-155.9522,298.06,84,100,3.09,US,1685600463
61,haiku-pauwela,20.9219,-156.3051,298.16,78,100,6.17,US,1685600464
62,jamestown,42.097,-79.2353,290.21,87,0,1.54,US,1685600465
63,san patricio,28.017,-97.5169,301.07,83,0,4.08,US,1685600465
64,punta arenas,-53.15,-70.9167,277.21,81,75,4.63,CL,1685600466
65,talnakh,69.4865,88.3972,280.26,98,100,3.83,RU,1685600466
66,livingston,55.9029,-3.5226,285.64,89,75,1.03,GB,1685600467
67,freetown,8.484,-13.2299,298.94,85,100,1.94,SL,1685600467
68,kununurra,-15.7667,128.7333,303.14,17,24,3.6,AU,1685600467
69,finneytown,39.2003,-84.5205,293.8,82,0,0.0,US,1685600468
70,juan griego,11.0817,-63.9655,299.41,86,100,4.75,VE,1685600468
71,selfoss,63.9331,-20.9971,280.95,89,42,1.7,IS,1685600469
72,naliya,23.2667,68.8333,305.9,56,33,9.75,IN,1685600469
73,nogliki,51.8333,143.1667,278.27,95,100,5.99,RU,1685600470
74,ciudad lazaro cardenas,17.9583,-102.2,299.58,77,22,1.8,MX,1685600470
75,mountain home,43.133,-115.6912,287.83,95,75,3.09,US,1685600194
76,kingston,17.997,-76.7936,300.68,81,20,4.63,JM,1685600340
77,rio grande,-32.035,-52.0986,287.98,88,25,2.37,BR,1685600472
78,shache,38.4167,77.2406,302.6,11,100,2.84,CN,1685600472
79,broome,42.2506,-75.833,290.15,75,0,0.8,US,1685600473
80,laguna,38.421,-121.4238,290.59,72,0,4.12,US,1685600473
81,san jose del cabo,23.0589,-109.6977,297.92,65,0,0.45,MX,1685600474
82,nova vicosa,-17.8919,-39.3719,295.61,87,15,1.32,BR,1685600474
83,lahad datu,5.0268,118.327,304.23,64,72,3.27,MY,1685600475
84,kodiak,57.79,-152.4072,280.88,76,100,2.06,US,1685600475
85,ilulissat,69.2167,-51.1,275.16,93,100,2.57,GL,1685600476
86,port elizabeth,-33.918,25.5701,286.1,94,20,1.54,ZA,1685600476
87,ta`u,-14.2336,-169.5144,301.13,72,83,6.42,AS,1685600477
88,hermanus,-34.4187,19.2345,288.6,90,99,1.22,ZA,1685600478
89,pimentel,-6.8367,-79.9342,297.31,73,75,4.12,PE,1685600478
90,tura,25.5198,90.2201,309.37,36,4,2.91,IN,1685600479
91,ancud,-41.8697,-73.8203,281.52,93,70,3.01,CL,1685600479
92,pandan,14.0453,124.1694,305.08,65,34,7.46,PH,1685600480
93,petropavlovsk-kamchatsky,53.0452,158.6483,278.48,100,75,6.0,RU,1685600480
94,yemetsk,63.4721,41.7941,284.06,71,100,3.26,RU,1685600481
95,kamenka,51.3223,42.7678,288.05,63,59,4.56,RU,1685600482
96,crane,31.3974,-102.3501,297.55,55,78,11.47,US,1685600482
97,gannat,46.1002,3.1989,288.03,82,14,1.24,FR,1685600483
98,brainerd,46.358,-94.2008,291.29,94,0,0.0,US,1685600483
99,at taj,24.2049,23.2857,305.43,24,88,11.38,LY,1685600484
100,chokwe,-24.5333,32.9833,294.55,76,46,1.96,MZ,1685600484
101,tshikapa,-6.4167,20.8,297.58,64,4,0.76,CD,1685600485
102,taro,-8.3862,115.28,299.15,75,85,2.24,ID,1685600485
103,yigo village,13.5361,144.8886,301.89,81,40,7.2,GU,1685600486
104,rosario,-32.9468,-60.6393,289.96,89,76,0.0,AR,1685600486
105,sao vicente,-23.9631,-46.3919,293.3,26,94,1.31,BR,1685600487
106,chuka,-0.3332,37.6459,293.76,67,32,1.86,KE,1685600488
107,ulsteinvik,62.3432,5.8487,281.43,77,96,2.68,NO,1685600488
108,klyuchi,52.2667,79.1667,299.49,20,4,4.35,RU,1685600489
109,mukalla,14.5425,49.1242,304.91,67,32,2.63,YE,1685600489
110,quellon,-43.1167,-73.6167,279.29,100,20,0.0,CL,1685600230
111,houghton,47.1219,-88.569,295.86,81,0,2.06,US,1685600400
112,bayanaul,50.7889,75.6956,297.89,20,0,5.29,KZ,1685600491
113,ituverava,-20.3394,-47.7806,290.66,91,64,0.15,BR,1685600492
114,yeppoon,-23.1333,150.7333,299.03,62,0,2.89,AU,1685600492
115,cihuatlan,19.2366,-104.5651,295.95,86,0,1.21,MX,1685600492
116,mar del plata,-38.0023,-57.5575,284.31,93,0,3.6,AR,1685600254
117,longyearbyen,78.2186,15.6401,274.06,60,0,4.63,SJ,1685600493
118,roma,43.2128,-75.4557,290.22,88,0,0.0,US,1685600465
119,port alfred,-33.5906,26.891,286.03,86,40,0.89,ZA,1685600494
120,kangding,30.0513,101.9603,295.21,72,87,3.37,CN,1685600495
121,dudinka,69.4058,86.1778,283.73,72,98,6.81,RU,1685600495
122,constantia,44.1833,28.65,294.65,60,74,2.21,RO,1685600496
123,grand falls-windsor,48.9332,-55.6649,282.32,86,86,0.97,CA,1685600497
124,al bukayriyah,26.1442,43.6593,304.02,27,4,6.09,SA,1685600497
125,griffith,41.5284,-87.4237,294.85,85,0,0.0,US,1685600498
126,hadithah,34.1397,42.3781,302.9,21,0,4.0,IQ,1685600498
127,bredasdorp,-34.5322,20.0403,288.28,94,100,1.55,ZA,1685600499
128,cole harbour,44.6724,-63.4751,287.81,65,13,2.06,CA,1685600499
129,barguzin,53.6167,109.6167,290.77,40,63,2.31,RU,1685600500
130,coahuayana de hidalgo,18.7,-103.6583,296.56,87,2,1.29,MX,1685600500
131,danghara,38.0958,69.34,306.27,16,41,3.64,TJ,1685600501
132,kourou,5.1552,-52.6478,297.18,90,84,1.84,GF,1685600501
133,cold lake,54.4502,-110.2017,290.12,77,75,6.17,CA,1685600502
134,polyarnyy,69.1989,33.4478,279.79,85,100,8.59,RU,1685600502
135,fandriana,-20.2333,47.3833,288.46,75,27,1.3,MG,1685600503
136,vila franca do campo,37.7167,-25.4333,289.38,86,87,1.55,PT,1685600503
137,slobozia,46.7281,29.7078,293.54,54,60,1.91,MD,1685600504
138,kencong,-8.2833,113.3667,302.08,69,67,5.16,ID,1685600504
139,newquay,50.4132,-5.0819,286.39,82,0,2.57,GB,1685600505
140,yaren,-0.5472,166.916,302.18,71,25,3.09,NR,1685600505
141,san rafael,-34.6177,-68.3301,283.99,72,62,1.83,AR,1685600506
142,grand gaube,-20.0064,57.6608,300.03,59,14,0.89,MU,1685600506
143,margaret river,-33.95,115.0667,289.11,60,78,5.85,AU,1685600507
144,ust-nera,64.5667,143.2,289.4,47,50,3.62,RU,1685600508
145,hasaki,35.7333,140.8333,298.31,67,100,7.08,JP,1685600508
146,yeniseysk,58.4497,92.1703,298.64,22,93,2.24,RU,1685600509
147,itamaraca,-7.7478,-34.8256,297.18,88,46,2.15,BR,1685600509
148,essaouira,31.5125,-9.77,289.87,100,20,2.57,MA,1685600510
149,gwarzo,11.9152,7.9346,299.42,59,100,3.9,NG,1685600510
150,kondoa,-4.9,35.7833,292.28,72,25,2.74,TZ,1685600511
151,banda aceh,5.5577,95.3222,304.04,64,100,7.17,ID,1685600511
152,hithadhoo,-0.6,73.0833,301.22,75,98,4.69,MV,1685600512
153,shahrak,34.1074,64.3052,292.98,10,0,4.79,AF,1685600512
154,ushuaia,-54.8,-68.3,276.96,87,0,1.54,AR,1685600281
155,curup,-3.4667,102.5333,301.02,62,94,1.37,ID,1685600513
156,caruaru,-8.2833,-35.9761,293.96,90,83,2.02,BR,1685600271
157,lagos,6.5833,3.75,299.33,97,100,0.15,NG,1685600515
158,kralendijk,12.15,-68.2667,301.14,83,20,5.14,BQ,1685600516
159,frutal,-20.0247,-48.9406,289.52,95,18,1.92,BR,1685600516
160,t'ongch'on-up,38.9539,127.8917,297.76,58,96,2.57,KP,1685600517
161,kotabumi,-4.8333,104.9,305.36,54,73,1.7,ID,1685600517
162,sparti,37.0733,22.4297,294.23,69,82,1.48,GR,1685600518
163,kyzylorda,44.8528,65.5092,305.16,14,0,10.0,KZ,1685600518
164,puerto ayora,-0.7393,-90.3518,298.46,92,46,2.24,EC,1685600519
165,porto velho,-8.7619,-63.9039,297.18,94,40,1.54,BR,1685600354
166,nevel'sk,46.6733,141.8633,283.05,91,100,6.78,RU,1685600520
167,nema,57.5067,50.5011,290.33,68,82,4.81,RU,1685600520
168,tuy hoa,13.0833,109.3,307.93,51,94,2.77,VN,1685600521
169,ar rutbah,33.0381,40.2848,297.11,31,0,2.53,IQ,1685600521
170,necochea,-38.5473,-58.7368,284.71,72,2,4.51,AR,1685600522
171,charters towers,-20.1,146.2667,300.11,34,3,5.05,AU,1685600523
172,urengoy,65.9667,78.3667,287.25,67,100,7.9,RU,1685600523
173,ola,59.5833,151.2833,286.01,59,100,9.13,RU,1685600523
174,yuzhno-kurilsk,44.0306,145.8556,287.01,67,11,5.35,RU,1685600524
175,badger,64.8,-147.5333,283.29,47,40,6.69,US,1685600525
176,xichang,27.8964,102.2634,309.18,22,100,4.19,CN,1685600525
177,nouadhibou,20.931,-17.0347,291.8,84,97,8.25,MR,1685600526
178,wailua homesteads,22.0669,-159.378,297.39,89,75,6.17,US,1685600526
179,tibagi,-24.5094,-50.4136,285.19,95,18,0.99,BR,1685600527
180,itaituba,-4.2761,-55.9836,295.85,98,21,0.48,BR,1685600527
181,qaqortoq,60.7167,-46.0333,275.33,97,100,2.32,GL,1685600528
182,lebu,-37.6167,-73.65,284.49,92,100,0.97,CL,1685600528
183,tan-tan,28.438,-11.1032,290.12,94,40,3.09,MA,1685600529
184,sangin,32.0728,64.8359,306.32,5,0,5.02,AF,1685600529
185,arkhangel'sk,64.5401,40.5433,284.46,69,100,2.66,RU,1685600530
186,kongolo,-5.3833,27.0,296.75,58,1,1.53,CD,1685600531
187,la passe,45.5549,-0.8967,290.94,90,4,4.6,FR,1685600531
188,sittwe,20.15,92.9,304.06,66,100,4.6,MM,1685600532
189,guinguineo,14.2667,-15.95,298.78,67,100,3.06,SN,1685600532
190,aberdeen,57.1437,-2.0981,283.26,93,75,4.63,GB,1685600270
191,kargopol',61.5071,38.9456,285.18,73,74,4.32,RU,1685600533
192,cabedelo,-6.9811,-34.8339,297.52,86,63,3.06,BR,1685600534
193,turpan,42.9333,89.1667,304.45,12,35,3.04,CN,1685600534
194,iskateley,67.6803,53.1512,289.46,56,61,2.39,RU,1685600535
195,avarua,-21.2078,-159.775,293.18,73,75,1.54,CK,1685600536
196,ciudad del carmen,18.6333,-91.8333,300.79,75,0,4.13,MX,1685600280
197,cayeli,41.0923,40.7292,292.23,88,94,1.6,TR,1685600537
198,taiynsha,53.8478,69.7639,301.68,28,76,2.73,KZ,1685600537
199,walvis bay,-22.9575,14.5053,284.87,78,0,3.58,NA,1685600537
200,lihue,21.9789,-159.3672,297.73,86,75,6.17,US,1685600538
201,bengkulu,-3.8004,102.2655,303.24,63,83,4.36,ID,1685600538
202,puerto del rosario,28.5004,-13.8627,291.01,63,20,1.54,ES,1685600539
203,aasiaat,68.7098,-52.8699,274.09,99,100,2.46,GL,1685600539
204,howrah,22.5892,88.3103,310.15,44,20,2.06,IN,1685600540
205,ribeira grande,38.5167,-28.7,290.37,88,75,2.06,PT,1685600540
206,afaahiti,-17.75,-149.2833,295.96,64,7,6.34,PF,1685600541
207,itoman,26.1247,127.6694,301.15,96,75,16.98,JP,1685600541
208,west island,-12.1568,96.8225,300.14,83,75,9.26,CC,1685600542
209,codrington,-38.2667,141.9667,285.99,54,92,3.44,AU,1685600542
210,iglino,54.8324,56.4126,298.2,84,100,3.79,RU,1685600543
211,watampone,-4.5386,120.3279,302.5,68,97,3.67,ID,1685600543
212,enewetak,11.3474,162.3373,300.94,75,100,9.29,MH,1685600544
213,dolinsk,47.35,142.8,283.56,84,98,1.47,RU,1685600544
214,saipan,15.1355,145.701,301.84,100,75,4.12,MP,1685600545
215,labytnangi,66.6572,66.4183,285.41,91,100,5.6,RU,1685600545
216,ordynskoye,54.3656,81.8994,299.44,24,13,0.35,RU,1685600546
217,bima,-8.4667,118.7167,302.8,65,91,2.84,ID,1685600546
218,kolonia town,6.964,158.206,304.21,74,100,5.14,FM,1685600547
219,dombarovskiy,50.7587,59.5386,305.02,21,100,5.04,RU,1685600547
220,nar'yan-mar,67.6713,53.087,289.19,57,65,2.34,RU,1685600548
221,hovd,48.0056,91.6419,286.17,35,64,2.95,MN,1685600548
222,micheweni,-4.9667,39.8333,299.65,83,26,4.94,TZ,1685600549
223,jieshi,22.8134,115.8257,302.55,75,5,4.87,CN,1685600352
224,westport,41.1415,-73.3579,288.01,87,0,2.06,US,1685600429
225,san ignacio de velasco,-16.3667,-60.95,290.36,99,11,1.88,BO,1685600550
226,atyrau,47.1167,51.8833,305.16,20,40,8.0,KZ,1685600550
227,meadow lakes,61.6247,-149.6011,282.55,83,100,0.45,US,1685600551
228,highfields,-27.4518,151.9463,290.57,55,59,3.42,AU,1685600551
229,sumenep,-7.0167,113.8667,302.6,66,70,4.77,ID,1685600552
230,naracoorte,-36.9579,140.7383,286.88,53,95,2.21,AU,1685600552
231,anadyr,64.75,177.4833,278.71,70,20,3.58,RU,1685600553
232,chuhar jamali,24.3895,67.9923,306.0,57,51,9.75,PK,1685600554
233,bereznik,62.8551,42.7072,285.09,59,100,3.6,RU,1685600554
234,fisterra,42.9049,-9.2629,289.68,90,72,2.07,ES,1685600555
235,lompoc,34.6391,-120.4579,287.47,85,0,2.06,US,1685600555
236,queenstown,-31.8976,26.8753,280.73,64,99,2.55,ZA,1685600555
237,pisco,-13.7,-76.2167,293.18,77,100,3.09,PE,1685600556
238,kitui,-1.367,38.0106,293.68,74,34,2.65,KE,1685600556
239,pando,-34.7167,-55.95,286.2,100,0,1.54,UY,1685600557
240,awjilah,29.1081,21.2869,298.22,50,95,6.65,LY,1685600557
241,kupang,-10.1667,123.5833,303.47,62,40,6.69,ID,1685600558
242,hamilton,39.1834,-84.5333,294.26,83,0,0.45,US,1685601094
243,sacriston,54.8177,-1.6241,284.12,83,39,2.04,GB,1685600559
244,pervomayskiy,53.2485,40.2871,288.67,59,0,2.91,RU,1685600559
245,dryden,49.7833,-92.7503,290.31,94,20,3.09,CA,1685600560
246,eregli,37.5133,34.0467,290.98,62,19,1.38,TR,1685600560
247,owo,7.1962,5.5868,296.24,95,99,1.04,NG,1685600561
248,barcelos,41.5388,-8.6151,290.84,92,82,0.67,PT,1685600561
249,palu,-0.8917,119.8707,303.17,82,94,1.54,ID,1685600323
250,urganch,41.55,60.6333,306.12,19,0,6.17,UZ,1685600562
251,jacksonville,30.3322,-81.6556,297.21,87,0,3.6,US,1685600871
252,ca mau,9.1769,105.15,304.36,62,100,5.8,VN,1685600563
253,vorgashor,67.5833,63.95,286.82,64,100,4.36,RU,1685600563
254,plouzane,48.3833,-4.6167,286.25,94,100,7.72,FR,1685600563
255,safaga,26.7292,33.9365,303.55,42,2,0.45,EG,1685600333
256,albu kamal,34.45,40.9186,299.54,32,0,2.45,SY,1685600564
257,keflavik,64.0049,-22.5624,280.39,100,100,1.03,IS,1685600565
258,kurumkan,54.3,110.3,291.09,39,44,2.55,RU,1685600565
259,carolina beach,34.0352,-77.8936,293.2,85,87,4.07,US,1685600566
260,urucara,-2.5364,-57.76,296.45,94,12,0.98,BR,1685600566
261,muynoq,43.7683,59.0214,307.54,19,62,7.28,UZ,1685600567
262,sanctuary point,-35.1114,150.629,294.37,73,23,5.57,AU,1685600567
263,bamusso,4.4591,8.9027,298.07,89,89,1.2,CM,1685600567
264,danjiangkou,32.5428,111.5086,306.13,38,49,0.46,CN,1685600568
265,vernon,50.2581,-119.2691,290.89,36,51,1.54,CA,1685600568
266,weno,7.4515,151.8468,303.12,79,100,2.57,FM,1685600569
267,carnarvon,-24.8667,113.6333,295.75,52,6,6.33,AU,1685600569
268,port macquarie,-31.4333,152.9167,293.65,55,30,2.35,AU,1685600402
269,island harbour,50.724,-1.2758,284.36,86,15,3.13,GB,1685600570
270,vadso,70.0744,29.7487,278.24,60,75,11.83,NO,1685600571
271,silistra,44.1167,27.2667,294.21,46,73,1.79,BG,1685600571
272,recco,44.3623,9.1435,295.12,67,62,2.71,IT,1685600571
273,kirovskoye,42.6198,71.5891,297.5,35,0,3.14,KG,1685600572
274,saint-philippe,-21.3585,55.7679,298.92,75,29,4.12,RE,1685600572
275,kittila,67.6647,24.8936,276.23,60,75,6.69,FI,1685600573
276,zaozersk,69.4005,32.4476,278.33,91,100,9.71,RU,1685600573
277,sur,22.5667,59.5289,310.1,39,0,1.98,OM,1685600574
278,gamba,-2.65,10.0,296.91,93,100,2.21,GA,1685600574
279,sydney mines,46.2367,-60.2177,289.88,78,40,1.34,CA,1685600575
280,gadzhiyevo,69.2551,33.3362,279.33,87,100,9.28,RU,1685600575
281,ceyranbatan,40.5408,49.6597,297.99,62,14,7.3,AZ,1685600576
282,hawaiian paradise park,19.5933,-154.9731,295.95,97,100,3.09,US,1685600576
283,kapa'a,22.0752,-159.319,298.14,89,75,6.17,US,1685600576
284,san juan de miraflores,-12.1629,-76.9635,293.44,82,72,2.28,PE,1685600577
285,iquique,-20.2208,-70.1431,292.17,79,59,0.7,CL,1685600578
286,yichang,30.7144,111.2847,304.06,50,86,0.27,CN,1685600427
287,ujae,8.9322,165.7642,300.63,80,100,7.5,MH,1685600579
288,nuuk,64.1835,-51.7216,275.04,96,100,17.39,GL,1685600579
289,n'dalatando,-9.2978,14.9116,291.96,96,100,0.54,AO,1685600579
290,luganville,-15.5333,167.1667,299.05,88,72,3.47,VU,1685600580
291,alice springs,-23.7,133.8833,300.9,10,0,3.09,AU,1685600580
292,weihai,37.5017,122.1136,297.58,57,3,5.16,CN,1685600581
293,zouerate,22.7187,-12.4521,293.81,48,78,5.0,MR,1685600582
294,aswan,24.0934,32.907,308.92,14,0,4.92,EG,1685600582
295,vilyuchinsk,52.9306,158.4028,279.3,96,100,0.56,RU,1685600583
296,vila velha,-20.3297,-40.2925,293.68,95,0,1.03,BR,1685600583
297,hilo,19.7297,-155.09,296.07,97,100,3.09,US,1685600583
298,puerto armuelles,8.2833,-82.8667,301.02,82,100,1.79,PA,1685600584
299,betulia,6.1128,-75.9838,291.13,99,100,0.98,CO,1685600584
300,sarina,-21.4333,149.2167,298.3,57,1,3.23,AU,1685600585
301,happy valley-goose bay,53.3168,-60.3315,286.32,82,75,2.06,CA,1685600585
302,smithers,54.7804,-127.1743,281.33,57,100,0.0,CA,1685600484
303,spring creek,40.7266,-115.5859,285.98,71,76,0.76,US,1685600587
304,porto novo,6.4965,2.6036,298.05,92,100,1.26,BJ,1685600587
305,san luis de la loma,17.2706,-100.8939,300.16,74,0,1.4,MX,1685600588
306,amga,60.8953,131.9608,291.43,56,66,2.85,RU,1685600588
307,nova sintra,14.8667,-24.7167,292.88,80,100,8.43,CV,1685600589
308,paraiso,9.8383,-83.8656,291.71,98,100,1.12,CR,1685600313
309,antofagasta,-23.65,-70.4,288.75,83,7,0.6,CL,1685600589
310,hammerfest,70.6634,23.6821,276.4,75,75,6.69,NO,1685600439
311,aral,40.5156,81.2636,303.42,9,97,3.51,CN,1685600590
312,manta,-0.95,-80.7333,297.91,87,100,3.58,EC,1685600442
313,bonthe,7.5264,-12.505,298.98,87,100,1.57,SL,1685600591
314,kloulklubed,7.0419,134.2556,300.43,69,98,0.85,PW,1685600592
315,helong,42.5397,128.9972,300.04,19,51,3.87,CN,1685600592
316,agboville,5.928,-4.2132,296.81,99,99,1.3,CI,1685600593
317,alvand,36.3187,49.1678,293.49,36,1,1.31,IR,1685600593
318,colonia,50.9333,6.95,289.23,75,0,3.09,DE,1685600545
319,baruun-urt,46.6806,113.2792,292.6,24,95,7.73,MN,1685600594
320,macusani,-14.0833,-70.4333,273.47,67,0,0.59,PE,1685600595
321,machico,32.7,-16.7667,293.15,86,40,1.54,PT,1685600595
322,zhongshu,24.5167,103.7667,304.84,30,100,3.7,CN,1685600596
323,laojunmiao,39.8333,97.7333,291.08,20,99,6.45,CN,1685600596
324,woolgoolga,-30.1106,153.2007,294.08,58,29,1.88,AU,1685600597
325,kargasok,59.0556,80.8572,298.86,28,56,2.81,RU,1685600384
326,okhotsk,59.3833,143.3,283.79,64,100,3.39,RU,1685600597
327,wewak,-3.5534,143.6268,302.47,72,57,3.01,PG,1685600598
328,ulaangom,49.9811,92.0667,290.23,30,95,4.06,MN,1685600353
329,la ronge,55.1001,-105.2842,288.29,88,100,3.09,CA,1685600394
330,sisimiut,66.9395,-53.6735,275.9,88,100,6.39,GL,1685600599
331,kondagaon,19.6,81.6667,313.08,14,81,3.31,IN,1685600600
332,paya,18.25,-70.3,300.51,86,94,2.06,DO,1685600600
333,north bay,46.3168,-79.4663,291.54,77,0,1.54,CA,1685600601
334,sudak,44.85,34.9667,291.58,75,80,3.66,UA,1685600601
335,lorengau,-2.0226,147.2712,302.36,70,49,2.23,PG,1685600602
336,kruisfontein,-34.0033,24.7314,285.11,77,0,2.63,ZA,1685600602
337,virginia beach,36.8529,-75.978,292.6,94,100,4.63,US,1685600532
338,new plymouth,-39.0667,174.0833,289.57,100,57,4.93,NZ,1685600603
339,lardjem,35.748,1.5481,287.95,69,1,0.82,DZ,1685600603
340,chibougamau,49.9168,-74.3659,289.94,72,75,1.03,CA,1685600604
341,aleksandrovsk-sakhalinskiy,50.8975,142.1561,279.42,88,99,2.98,RU,1685600604
342,la almunia de dona godina,41.4767,-1.3745,289.35,84,99,1.14,ES,1685600605
343,edson,53.5835,-116.4356,284.23,93,100,3.6,CA,1685600605
344,lakatoro,-16.0999,167.4164,299.53,83,51,5.93,VU,1685600606
345,saint-pierre,-21.3393,55.4781,298.97,61,20,5.66,RE,1685600606
346,tolanaro,-25.0319,46.9987,298.19,61,20,4.12,MG,1685600607
347,chikitigarh,19.2,84.6167,312.4,36,70,3.76,IN,1685600607
348,maua,-23.6678,-46.4614,289.04,95,92,1.57,BR,1685600608
349,marsh harbour,26.5412,-77.0636,299.44,74,100,4.36,BS,1685600608
350,sao luiz gonzaga,-28.4083,-54.9608,287.51,87,15,1.79,BR,1685600609
351,benguela,-12.5763,13.4055,295.02,77,5,0.46,AO,1685600609
352,namibe,-15.1961,12.1522,292.64,67,4,2.47,AO,1685600610
353,qarauyl,48.9451,79.255,295.3,26,0,9.89,KZ,1685600610
354,miri,4.4148,114.0089,306.23,75,40,3.6,MY,1685600610
355,leteri,24.05,77.4,310.2,17,0,7.4,IN,1685600611
356,toksovo,60.1532,30.5165,286.13,52,88,2.95,RU,1685600363
357,poronaysk,49.2167,143.1167,285.31,61,100,3.03,RU,1685600612
358,port douglas,-16.4833,145.4667,297.78,67,6,5.83,AU,1685600612
359,san carlos de bariloche,-41.1456,-71.3082,278.4,63,40,1.54,AR,1685600613
360,shimoda,34.6667,138.95,297.35,72,95,3.7,JP,1685600613
361,bikenibeu village,1.3673,173.1241,303.13,74,40,1.54,KI,1685600614
362,maceio,-9.6658,-35.7353,297.84,100,100,1.03,BR,1685600614
363,qacha's nek,-30.1154,28.6894,275.47,69,77,2.07,LS,1685600615
364,gokwe,-18.2048,28.9349,290.89,48,32,1.45,ZW,1685600615
365,coxim,-18.5067,-54.76,292.33,93,0,1.32,BR,1685600615
366,springbok,-29.6643,17.8865,281.47,69,2,3.74,ZA,1685600616
367,horta,38.5333,-28.6333,289.95,90,75,2.06,PT,1685600616
368,saryaghash,41.45,69.1667,301.11,20,0,3.75,KZ,1685600617
369,mandalgovi,45.7625,106.2708,287.29,46,98,5.31,MN,1685600617
370,cabo san lucas,22.8909,-109.9124,297.93,82,5,6.9,MX,1685600496
371,phek,25.6667,94.5,302.34,33,17,1.61,IN,1685600618
372,ponta delgada,37.7333,-25.6667,289.55,88,20,1.03,PT,1685600618
373,alofi,-19.0595,-169.9187,295.09,100,62,0.51,NU,1685600619
374,bizhbulyak,53.6967,54.2642,296.18,63,100,3.85,RU,1685600620
375,sault ste. marie,46.5168,-84.3333,291.46,79,0,2.57,CA,1685600506
376,miquelon,47.0975,-56.3814,278.15,87,76,3.34,PM,1685600621
377,fort st. john,56.2499,-120.8529,281.09,46,20,3.6,CA,1685600621
378,ryotsu-minato,38.0833,138.4333,294.72,54,100,0.98,JP,1685600621
379,tralee,52.2704,-9.7026,284.77,85,0,1.85,IE,1685600622
380,tual,-5.6667,132.75,300.27,82,89,7.33,ID,1685600622
381,houlton,46.1262,-67.8403,292.38,61,0,1.54,US,1685600623
382,sabha,27.0377,14.4283,296.64,46,0,5.93,LY,1685600623
383,kailua-kona,19.6406,-155.9956,300.13,84,100,3.09,US,1685600624
384,farah,32.5,62.5,303.42,6,7,3.24,AF,1685600624
385,mount pearl,47.5166,-52.7813,277.77,84,40,2.57,CA,1685600625
386,tangalle,6.024,80.7911,305.24,64,86,7.18,LK,1685600625
387,aykhal,66.0,111.5,284.06,34,0,1.31,RU,1685600625
388,guatrache,-37.6678,-63.5302,284.07,52,27,1.68,AR,1685600626
389,fort bragg,35.139,-79.006,292.15,95,0,0.0,US,1685600420
390,nemuro,43.3236,145.575,285.13,75,18,9.11,JP,1685600627
391,corner brook,48.9667,-57.9484,279.24,91,51,1.97,CA,1685600565
392,shingu,33.7333,135.9833,295.14,92,90,3.42,JP,1685600628
393,newman,37.3138,-121.0208,291.34,72,0,3.21,US,1685600628
394,kerikeri,-35.2268,173.9474,289.77,91,33,2.16,NZ,1685600490
395,dali,25.7,100.1833,303.75,26,33,2.56,CN,1685600631
396,banswara,23.55,74.45,310.15,22,0,5.39,IN,1685600631
397,zyryanovsk,49.7386,84.2719,292.12,42,1,1.55,KZ,1685600631
398,mermoz boabab,14.7065,-17.4758,297.46,79,100,5.27,SN,1685600632
399,carutapera,-1.195,-46.02,297.31,91,68,2.21,BR,1685600632
400,pajara,28.3504,-14.1076,289.88,71,0,1.0,ES,1685600633
401,pitimbu,-7.4706,-34.8086,297.48,85,67,2.81,BR,1685600633
402,portland,45.5234,-122.6762,286.09,69,37,0.45,US,1685600561
403,la'ie,21.6477,-157.9253,299.13,84,14,4.96,US,1685600634
404,sena madureira,-9.0656,-68.6569,294.16,93,42,0.26,BR,1685600635
405,preobrazheniye,42.9019,133.9064,289.38,75,85,5.01,RU,1685600635
406,barstow,34.8986,-117.0228,293.7,60,0,5.89,US,1685600635
407,erenhot,43.6475,111.9767,292.68,24,98,7.76,CN,1685600636
408,guerrero negro,27.9769,-114.0611,288.52,80,2,7.74,MX,1685600636
409,mount isa,-20.7333,139.5,302.02,21,0,2.57,AU,1685600637
410,murun-kuren,49.6342,100.1625,283.85,61,100,0.08,MN,1685600637
411,arno,60.1167,18.6333,280.25,51,49,7.53,SE,1685600638
412,salinopolis,-0.6136,-47.3561,299.0,84,47,3.82,BR,1685600638
413,shitanjing,39.2342,106.3439,293.81,11,52,7.38,CN,1685600638
414,gisborne,-38.6533,178.0042,287.84,78,12,3.76,NZ,1685600639
415,hassi messaoud,31.6804,6.0729,293.07,56,0,1.03,DZ,1685600639
416,berdigestyakh,62.0989,126.6992,291.24,44,39,3.1,RU,1685600640
417,kyzyl,51.7,94.45,291.24,38,95,3.49,RU,1685600640
418,lerwick,60.1545,-1.1494,281.15,72,47,6.43,GB,1685600641
419,tosontsengel,48.7567,98.2839,281.11,62,100,6.13,MN,1685600641
420,lampang,18.3333,99.5,311.36,44,20,2.06,TH,1685600642
421,yinchuan,38.4681,106.2731,299.05,15,92,1.18,CN,1685600642
422,grinnell,41.743,-92.7224,295.14,74,0,1.54,US,1685600643
423,st. paul,44.9444,-93.0933,296.63,69,75,4.12,US,1685600643
424,tazacorte,28.629,-17.9293,293.69,89,40,4.63,ES,1685600644
425,chui,-33.6971,-53.4616,286.06,93,45,2.0,UY,1685600644
426,east london,-33.0153,27.9116,288.67,63,0,4.12,ZA,1685600644
427,ormara,25.2088,64.6357,302.09,82,12,6.78,PK,1685600645
428,floro,61.5996,5.0328,282.17,61,20,7.2,NO,1685600645
429,ketchikan,55.3422,-131.6461,283.14,81,75,2.06,US,1685600646
430,san pablo,14.0669,121.3258,302.54,56,37,5.15,PH,1685600646
431,sandacho,34.8833,135.2333,298.14,100,92,4.36,JP,1685600647
432,yukuhashi,33.7287,130.983,298.84,94,75,7.2,JP,1685600647
433,mazagao,-0.115,-51.2894,299.18,96,22,1.44,BR,1685600648
434,ostrogozhsk,50.8664,39.0756,288.59,57,12,2.16,RU,1685600648
435,dubbo,-32.25,148.6167,295.22,37,1,2.57,AU,1685600649
436,lijiang,26.8688,100.2207,302.78,19,84,2.82,CN,1685600527
437,labrador city,52.9463,-66.9114,288.1,77,100,1.03,CA,1685600649
438,praia da vitoria,38.7333,-27.0667,289.29,94,40,1.44,PT,1685600650
439,kenai,60.5544,-151.2583,283.72,71,100,8.23,US,1685600650
440,kalundborg,55.6795,11.0886,286.11,83,8,7.49,DK,1685600651
441,beau vallon,-20.4189,57.6953,299.94,65,75,3.6,MU,1685600651
442,anacapri,40.5558,14.2136,294.38,74,77,2.52,IT,1685600652
443,maragogi,-9.0122,-35.2225,296.21,94,34,2.72,BR,1685600652
444,pingliang,35.5392,106.6861,296.91,32,78,3.64,CN,1685600653
445,oliver,49.1831,-119.5524,293.1,30,65,4.63,CA,1685600653
446,luderitz,-26.6481,15.1594,287.65,51,0,1.19,NA,1685600654
447,broken hill,-31.95,141.4333,294.69,35,26,2.7,AU,1685600654
448,san borja,-14.8167,-66.85,292.31,98,3,0.35,BO,1685600655
449,'ain el hadjar,34.7585,0.1453,284.78,63,77,2.18,DZ,1685600656
450,puerto lempira,15.2667,-83.7667,297.84,87,100,2.74,HN,1685600373
451,misratah,32.3754,15.0925,293.98,80,18,4.73,LY,1685600657
452,san antonio de pale,-1.4014,5.6325,299.1,82,78,4.9,GQ,1685600657
453,naze,28.3667,129.4833,296.66,95,100,11.4,JP,1685600657
454,chegdomyn,51.1167,133.0167,287.89,58,100,0.77,RU,1685600658
455,shalqar,47.8333,59.6,307.31,15,95,5.27,KZ,1685600659
456,sabang,5.8933,95.3214,301.46,77,96,8.75,ID,1685600659
457,inari,68.906,27.0288,274.26,96,100,8.16,FI,1685600660
458,don sak,9.3168,99.6918,307.09,64,96,6.99,TH,1685600660
459,kanevskaya,46.0849,38.9596,293.07,83,29,3.59,RU,1685600661
460,kamphaeng phet,16.25,99.5,310.1,40,73,0.62,TH,1685600661
461,saint-joseph,-21.3667,55.6167,298.36,71,14,4.47,RE,1685600662
462,marondera,-18.1853,31.5519,288.79,55,21,3.24,ZW,1685600662
463,oban,56.4127,-5.4706,285.89,86,7,1.14,GB,1685600663
464,mata-utu,-13.2816,-176.1745,301.83,79,100,8.76,WF,1685600663
465,sakassou,7.4546,-5.2926,298.06,99,89,1.89,CI,1685600664
466,al jawf,29.5,38.75,299.53,25,0,1.68,SA,1685600664
467,mil'kovo,55.6078,37.7956,289.29,57,4,5.09,RU,1685600665
468,kirkland lake,48.1446,-80.0377,290.31,88,36,0.0,CA,1685600665
469,swakopmund,-22.6833,14.5333,284.81,91,0,0.89,NA,1685600665
470,tidjikja,18.5564,-11.4271,301.27,23,98,4.17,MR,1685600666
471,mykolaiv,49.5237,23.9852,288.65,73,21,1.25,UA,1685600666
472,corbu,44.3833,28.65,294.89,64,0,3.6,RO,1685600667
473,inhuma,-6.6683,-41.7078,293.92,81,30,2.5,BR,1685600667
474,champerico,14.3,-91.9167,300.31,77,34,1.85,GT,1685600668
475,sinabang,2.4803,96.3801,302.15,71,98,0.95,ID,1685600668
476,tommot,58.9564,126.2925,289.5,54,57,3.24,RU,1685600669
477,maun,-19.9833,23.4167,286.13,44,0,1.03,BW,1685600669
478,richards bay,-28.783,32.0377,290.65,83,77,3.79,ZA,1685600670
479,usinsk,65.9939,57.5281,292.03,46,87,5.19,RU,1685600670
480,port saint john's,-31.6229,29.5448,288.28,72,42,2.49,ZA,1685600670
481,vitkov,49.7744,17.7494,292.34,41,20,0.65,CZ,1685600671
482,zhanibek,49.4167,46.85,296.39,53,76,5.69,KZ,1685600671
483,royan,45.6285,-1.0281,290.83,89,2,4.82,FR,1685600672
484,lefka,35.1106,32.8506,297.24,50,31,1.26,CY,1685600672
485,vilyuysk,63.7553,121.6247,289.95,33,9,3.33,RU,1685600673
486,ghanzi,-21.5667,21.7833,285.86,29,96,1.96,BW,1685600673
487,tazovsky,67.4667,78.7,282.1,87,100,7.96,RU,1685600674
488,astrakhan,46.3497,48.0408,296.08,68,40,5.0,RU,1685600674
489,kas,36.2018,29.6377,295.49,71,55,2.5,TR,1685600675
490,sao joao da barra,-21.6403,-41.0511,294.21,92,98,4.91,BR,1685600675
491,homer,59.6425,-151.5483,284.09,60,100,4.12,US,1685600676
492,auki,-8.7676,160.7034,301.89,74,55,0.65,SB,1685600676
493,santa rosa,14.3122,121.1114,305.98,70,33,7.07,PH,1685600383
494,arroyo,41.6096,-4.7969,287.37,88,0,2.57,ES,1685600677
495,thoen,17.6129,99.2161,311.94,34,23,1.84,TH,1685600677
496,toliara,-23.35,43.6667,297.24,37,100,2.27,MG,1685600678
497,tanda,26.55,82.65,312.05,17,5,7.26,IN,1685600678
498,papao,-17.75,-149.55,296.85,64,2,5.68,PF,1685600679
499,susuman,62.7833,148.1667,284.32,52,100,7.08,RU,1685600679
500,big spring,32.2504,-101.4787,297.4,61,40,5.66,US,1685600680
501,fada,9.5667,8.3,294.68,85,100,0.63,NG,1685600680
502,par naogaon,24.8029,88.9508,314.62,16,17,4.41,BD,1685600681
503,zemio,5.0314,25.1361,295.41,89,39,1.45,CF,1685600681
504,prince george,53.9166,-122.753,279.96,76,0,1.54,CA,1685600682
505,beatrice,40.2681,-96.747,295.2,83,40,3.09,US,1685600683
506,gustavia,17.8962,-62.8498,300.68,85,97,2.68,BL,1685600836
507,ak-suu,42.4995,78.527,290.08,47,100,2.67,KG,1685600683
508,seymour,38.9592,-85.8903,292.71,84,48,0.99,US,1685600595
509,kavaratti,10.5669,72.642,302.7,73,100,3.45,IN,1685600684
510,fale old settlement,-9.3852,-171.2468,301.56,73,26,4.01,TK,1685600685
511,wuwei,37.9281,102.6414,293.15,24,96,2.83,CN,1685600685
512,karratha,-20.7377,116.8463,300.04,29,0,4.32,AU,1685600686
513,arteche,12.2645,125.4048,305.31,59,93,4.04,PH,1685600686
514,legnago,45.1832,11.3091,294.27,71,8,0.45,IT,1685600687
515,taunsa,30.7048,70.6505,301.26,49,8,3.68,PK,1685600687
516,chuncheon,37.8747,127.7342,300.12,43,99,2.47,KR,1685600688
517,kikwit,-5.041,18.8162,296.43,82,60,0.7,CD,1685600688
518,bandar-e anzali,37.4727,49.4622,299.21,78,0,2.22,IR,1685600689
519,dongxi,28.7614,106.6611,296.0,97,100,1.94,CN,1685600689
520,wanning,18.8003,110.3967,305.79,65,92,4.98,CN,1685600690
521,hadibu,12.65,54.0333,304.02,67,21,2.48,YE,1685600690
522,ghat,24.9647,10.1728,298.15,24,1,2.75,LY,1685600690
523,havre,49.5833,0.3333,288.82,94,100,6.17,FR,1685600691
524,duba,27.3513,35.6901,305.72,33,0,3.07,SA,1685600691
525,remire-montjoly,4.9167,-52.2667,297.17,100,100,0.0,GF,1685600692
526,ratnagiri,16.9833,73.3,304.97,63,92,4.06,IN,1685600692
527,molina,-35.1167,-71.2833,284.0,100,100,1.03,CL,1685600693
528,vikulovo,56.8167,70.6107,299.37,48,97,4.23,RU,1685600693
529,cannonvale,-20.2833,148.7,294.81,65,1,5.68,AU,1685600694
530,magadan,59.5667,150.8,285.67,64,100,9.04,RU,1685600694
531,etropole,42.8333,24.0,288.88,76,94,0.44,BG,1685600694
532,targu secuiesc,46.0,26.1333,289.06,76,98,0.37,RO,1685600695
533,tromso,69.6496,18.957,277.8,87,75,3.6,NO,1685600695
534,talara,-4.5772,-81.2719,296.29,85,57,5.31,PE,1685600696
535,andovoranto,-18.95,49.1,295.98,76,61,2.45,MG,1685600696
536,mamuju,-2.6748,118.8885,303.25,72,91,1.47,ID,1685600697
537,juan aldama,24.2908,-103.3944,294.75,26,0,5.49,MX,1685600697
538,bentota,6.4254,79.9948,302.23,75,76,4.71,LK,1685600698
539,vorkuta,67.5,64.0,287.7,61,100,4.13,RU,1685600698
540,usogorsk,63.4106,48.6872,288.59,64,93,3.09,RU,1685600698
541,richland center,43.3347,-90.3868,294.5,83,16,1.78,US,1685600699
542,turgen,43.4006,77.5933,294.22,44,100,5.41,KZ,1685600699
543,salalah,17.0151,54.0924,305.2,70,20,3.09,OM,1685600700
544,natal,-5.795,-35.2094,297.51,100,40,2.57,BR,1685600404
545,pudasjarvi,65.3833,26.9167,278.85,38,49,4.25,FI,1685600701
546,linxia chengguanzhen,35.6003,103.2064,290.09,61,94,2.33,CN,1685600701
547,kuta,-8.7233,115.1723,303.12,74,20,5.66,ID,1685600702
548,fredericksburg,38.3032,-77.4605,288.56,89,0,0.0,US,1685600650
549,leticia,-4.2153,-69.9406,296.18,100,20,0.0,CO,1685600703
550,tsiombe,-25.3,45.4833,296.97,61,98,6.99,MG,1685600703
551,suksun,57.1431,57.3949,295.03,67,100,8.52,RU,1685600704
552,itapirapua,-15.8233,-50.6133,291.72,94,77,2.22,BR,1685600704
553,sainte-anne-des-monts,49.124,-66.4924,289.08,72,42,3.6,CA,1685600705
554,cidreira,-30.1811,-50.2056,288.39,84,2,2.06,BR,1685600705
555,kratie,12.4881,106.0188,308.77,45,83,2.5,KH,1685600706
556,den burg,53.0542,4.7972,284.8,83,100,4.12,NL,1685600706
557,hnidyn,50.329,30.7106,293.17,54,3,3.02,UA,1685600707
558,chervyen',53.7059,28.4313,291.32,65,4,4.26,BY,1685600707
559,yinzhu,35.8786,119.9753,296.31,72,38,5.41,CN,1685600708
560,waingapu,-9.6567,120.2641,301.26,63,99,6.19,ID,1685600708
561,port moresby,-9.4431,147.1797,300.83,83,75,7.72,PG,1685600709
562,galle,6.0367,80.217,301.83,76,72,5.61,LK,1685600709
563,northam,51.0333,-4.2167,284.6,88,14,6.38,GB,1685600710
564,boende,-0.2167,20.8667,297.53,77,72,0.25,CD,1685600710
565,santa comba dao,40.3986,-8.1316,289.2,91,8,0.64,PT,1685600711
566,partenit,44.578,34.3446,291.99,72,31,1.85,UA,1685600711
567,deqen,29.9618,90.7188,292.9,25,55,4.62,CN,1685600712
568,gazojak,41.1875,61.4036,307.47,14,91,8.25,TM,1685600712
569,emmeloord,52.7108,5.7486,285.42,83,54,1.79,NL,1685600713
570,bel ombre,-4.6167,55.4167,303.06,66,40,8.23,SC,1685600713
571,saint-remi,45.2668,-73.6159,295.12,73,0,1.54,CA,1685600599
572,buryn',51.1991,33.8352,289.62,55,0,3.04,UA,1685600715
573,kattivakkam,13.2167,80.3167,309.2,68,100,5.19,IN,1685600715
574,klaksvik,62.2266,-6.589,281.66,64,12,1.66,FO,1685600715
575,gondar,12.6,37.4667,293.28,52,76,2.07,ET,1685600716
576,arvayheer,46.2639,102.775,276.38,88,100,4.72,MN,1685600716
577,hericourt,47.5731,6.7614,291.45,78,13,1.49,FR,1685600717
578,zhaoyuan,37.3592,120.3964,302.88,41,11,4.49,CN,1685600717
579,sao luis,-2.5297,-44.3028,299.26,94,20,0.0,BR,1685600527
580,barabai,-2.5833,115.3833,307.47,47,100,0.54,ID,1685600718
581,galliano,29.4422,-90.2992,296.15,88,0,0.0,US,1685600719
582,pauini,-7.7136,-66.9764,295.1,96,71,0.47,BR,1685600720
583,nadym,65.5333,72.5167,291.06,61,100,8.15,RU,1685600720
584,kudymkar,59.0173,54.656,290.64,84,61,5.43,RU,1685600721
585,xilin hot,43.9667,116.0333,287.4,58,98,8.57,CN,1685600721
586,isoka,-10.1606,32.6335,291.3,65,37,0.8,ZM,1685600722
587,fortuna,40.5982,-124.1573,284.78,83,26,0.45,US,1685600722
588,ardestan,33.3761,52.3694,301.65,29,23,1.72,IR,1685600722
589,francistown,-21.17,27.5079,289.73,65,72,2.46,BW,1685600723
590,gorokhovets,56.1947,42.7003,288.74,56,24,4.02,RU,1685600723
591,tumaco,1.7986,-78.8156,296.83,94,100,3.48,CO,1685600724
592,kavieng,-2.5744,150.7967,300.89,82,100,5.13,PG,1685600724
593,cardenas,23.0375,-81.2047,295.57,90,38,3.43,CU,1685600725
594,zeya,53.75,127.2667,293.54,36,99,5.04,RU,1685600725
595,lemvig,56.5486,8.3102,285.48,84,1,9.17,DK,1685600726
596,san antonio oeste,-40.7319,-64.9477,284.68,53,2,1.34,AR,1685600726
597,kirkwood,38.5834,-90.4068,296.85,74,13,0.45,US,1685600439
598,suining,30.508,105.5733,298.48,66,99,3.23,CN,1685600727
599,piton saint-leu,-21.2196,55.3151,297.26,61,20,5.66,RE,1685600727
600,saurimo,-9.6608,20.3916,292.61,56,5,1.05,AO,1685600728
601,cukai,4.25,103.4167,305.12,60,96,3.89,MY,1685600728
602,mount gambier,-37.8333,140.7667,286.15,54,81,2.18,AU,1685600630
603,skowhegan,44.7651,-69.7192,286.87,90,1,0.84,US,1685600729
604,mantua,45.1667,10.7833,295.73,74,10,0.39,IT,1685600730
605,balti,47.7617,27.9289,292.88,51,41,1.93,MD,1685600730
606,shiyan,32.6475,110.7781,302.43,49,69,0.69,CN,1685600730
607,bandarbeyla,9.4942,50.8122,304.41,60,13,8.55,SO,1685600731
608,colon,9.3592,-79.9014,298.12,89,100,2.67,PA,1685600553
609,aripuana,-9.1667,-60.6333,295.71,97,95,0.19,BR,1685600732
610,posto fiscal rolim de moura,-13.0833,-62.2667,294.11,93,11,0.71,BR,1685600732
611,polatsk,55.4859,28.7756,286.24,49,37,4.63,BY,1685600733
612,alibag,18.6411,72.8792,307.19,60,0,4.34,IN,1685600733
613,buka,40.8108,69.1986,303.9,20,0,4.01,UZ,1685600734
614,tsiroanomandidy,-18.7667,46.0333,293.88,57,1,1.5,MG,1685600734
